$GLGSV,2,1,08,70,39,091,27,71,55,175,23,74,29,352,,86,09,289,*62
$GLGSV,2,2,08,73,68,081,,80,30,144,,87,12,236,,72,17,224,*68
$GPGSV,3,1,11,07,48,326,24,16,23,101,32,30,11,323,23,01,04,005,*76
$GPGSV,3,2,11,02,07,219,,03,49,056,,06,35,253,,09,56,224,*70
$GPGSV,3,3,11,22,20,049,,23,56,143,,26,13,129,*4E
$BDGSV,1,1,02,211,,,,214,55,213,*5F
$GPGGA,212947.0,,,,,0,,,,,,,,*73
$GPVTG,,T,,M,,N,,K,N*2C
$GPRMC,,V,,,,,,,,,,N*53
$GPGSA,A,1,,,,,,,,,,,,,,,*1E
$GNGSA,A,1,,,,,,,,,,,,,,,*00
$BDGSA,A,1,,,,,,,,,,,,,,,*0F
$GLGSV,2,1,08,70,39,091,23,73,68,081,29,71,55,175,32,74,29,352,*6A
$GLGSV,2,2,08,86,09,289,,80,30,144,,87,12,236,,72,17,224,*6F
$GPGSV,3,1,11,03,49,056,34,06,35,253,21,07,48,326,22,09,56,224,24*72
$GPGSV,3,2,11,16,23,101,38,22,20,049,32,23,56,143,37,01,04,005,*7B
$GPGSV,3,3,11,02,07,219,,26,13,129,,30,11,323,*4B
$BDGSV,1,1,02,211,,,,214,55,213,*5F
$GPGGA,212948.0,3437.843365,S,05822.303517,W,1,07,1.1,43.6,M,22.0,M,,*63
$GPVTG,219.3,T,224.8,M,3.0,N,5.5,K,A*25
$GPGSA,A,2,03,06,07,09,16,22,23,,,,,,1.4,1.1,0.9*32
$GNGSA,A,2,03,06,07,09,16,22,23,,,,,,1.4,1.1,0.9*2C
$GNGSA,A,2,70,71,73,,,,,,,,,,1.4,1.1,0.9*24
$BDGSA,A,2,,,,,,,,,,,,,1.4,1.1,0.9*2E
$GPRMC,212948.0,A,3437.843365,S,05822.303517,W,3.0,219.3,020517,5.5,W,A*15
$GLGSV,2,1,08,70,39,091,27,73,68,081,31,87,12,236,20,71,55,175,36*66
$GLGSV,2,2,08,74,29,352,,86,09,289,,80,30,144,,72,17,224,*68
$GPGSV,3,1,11,02,07,219,17,03,49,056,35,06,35,253,23,07,48,326,21*73
$GPGSV,3,2,11,16,23,101,39,22,20,049,32,23,56,143,34,30,11,323,21*7B
$GPGSV,3,3,11,01,04,005,,09,56,224,,26,13,129,*4B
$BDGSV,1,1,02,211,,,,214,55,213,*5F
$GPGGA,212949.0,3437.847693,S,05822.310842,W,1,08,0.9,32.6,M,22.0,M,,*65
$GPVTG,232.4,T,237.9,M,2.9,N,5.4,K,A*21
$GPGSA,A,2,03,06,07,09,16,22,23,30,,,,,1.3,0.9,0.9*3F
$GNGSA,A,2,03,06,07,09,16,22,23,30,,,,,1.3,0.9,0.9*21
$GNGSA,A,2,70,71,73,,,,,,,,,,1.3,0.9,0.9*2A
$BDGSA,A,2,,,,,,,,,,,,,1.3,0.9,0.9*20
$GPRMC,212949.0,A,3437.847693,S,05822.310842,W,2.9,232.4,020517,5.5,W,A*15
$GLGSV,2,1,08,70,39,091,21,73,68,081,25,80,30,144,17,87,12,236,19*63
$GLGSV,2,2,08,71,55,175,32,72,17,224,17,74,29,352,,86,09,289,*60
$GPGSV,3,1,11,01,04,005,16,02,07,219,16,03,49,056,30,06,35,253,26*7A
$GPGSV,3,2,11,07,48,326,23,16,23,101,37,22,20,049,26,23,56,143,39*72
$GPGSV,3,3,11,26,13,129,16,30,11,323,22,09,56,224,*4D
$BDGSV,1,1,02,211,,,,214,55,213,*5F
$GPGGA,212950.0,3437.850327,S,05822.316112,W,1,08,0.9,25.5,M,22.0,M,,*6E
$GPVTG,233.3,T,238.8,M,3.2,N,5.9,K,A*2E
$GPGSA,A,2,03,06,07,09,16,22,23,30,,,,,1.3,0.9,0.9*3F
$GNGSA,A,2,03,06,07,09,16,22,23,30,,,,,1.3,0.9,0.9*21
$GNGSA,A,2,70,71,73,,,,,,,,,,1.3,0.9,0.9*2A
$BDGSA,A,2,,,,,,,,,,,,,1.3,0.9,0.9*20
$GPRMC,212950.0,A,3437.850327,S,05822.316112,W,3.2,233.3,020517,5.5,W,A*17
$GLGSV,2,1,08,70,39,091,27,86,09,289,14,73,68,081,29,80,30,144,17*6B
$GLGSV,2,2,08,87,12,236,19,71,55,175,33,72,17,224,16,74,29,352,*67
$GPGSV,3,1,11,01,04,005,16,02,07,219,16,03,49,056,34,06,35,253,23*7B
$GPGSV,3,2,11,07,48,326,22,09,56,224,24,16,23,101,38,22,20,049,28*74
$GPGSV,3,3,11,23,56,143,37,26,13,129,15,30,11,323,26*44
$BDGSV,1,1,02,211,,,,214,55,213,*5F
$GPGGA,212951.0,3437.852133,S,05822.320239,W,1,08,0.9,16.6,M,22.0,M,,*66
$GPVTG,219.8,T,225.2,M,3.3,N,6.0,K,A*20
$GPGSA,A,2,03,06,07,09,16,22,23,30,,,,,1.3,0.9,0.9*3F
$GNGSA,A,2,03,06,07,09,16,22,23,30,,,,,1.3,0.9,0.9*21
$GNGSA,A,2,70,71,73,,,,,,,,,,1.3,0.9,0.9*2A
$BDGSA,A,2,,,,,,,,,,,,,1.3,0.9,0.9*20
$GPRMC,212951.0,A,3437.852133,S,05822.320239,W,3.3,219.8,020517,5.5,W,A*1E
$GLGSV,2,1,08,70,39,091,27,86,09,289,14,73,68,081,29,80,30,144,18*64
$GLGSV,2,2,08,87,12,236,20,71,55,175,30,72,17,224,16,74,29,352,*6E
$GPGSV,3,1,11,01,04,005,16,02,07,219,17,03,49,056,33,06,35,253,27*79
$GPGSV,3,2,11,07,48,326,23,16,23,101,35,22,20,049,26,23,56,143,29*71
$GPGSV,3,3,11,26,13,129,15,09,56,224,,30,11,323,*4E
$BDGSV,1,1,02,211,,,,214,55,213,*5F
$GPGGA,212952.0,3437.853489,S,05822.324068,W,1,08,0.9,11.8,M,22.0,M,,*6B
$GPVTG,219.2,T,224.7,M,3.2,N,5.9,K,A*25
$GPGSA,A,2,03,06,07,09,16,22,23,30,,,,,1.3,0.9,0.9*3F
$GNGSA,A,2,03,06,07,09,16,22,23,30,,,,,1.3,0.9,0.9*21
$GNGSA,A,2,70,71,73,,,,,,,,,,1.3,0.9,0.9*2A
$BDGSA,A,2,,,,,,,,,,,,,1.3,0.9,0.9*20
$GPRMC,212952.0,A,3437.853489,S,05822.324068,W,3.2,219.2,020517,5.5,W,A*11
$GLGSV,2,1,08,70,39,091,26,86,09,289,14,73,68,081,32,80,30,144,26*62
$GLGSV,2,2,08,87,12,236,22,71,55,175,33,72,17,224,16,74,29,352,*6F
$GPGSV,3,1,11,01,04,005,16,02,07,219,16,03,49,056,27,06,35,253,27*7D
$GPGSV,3,2,11,07,48,326,22,09,56,224,23,16,23,101,35,22,20,049,30*77
$GPGSV,3,3,11,23,56,143,38,26,13,129,15,30,11,323,*4F
$BDGSV,1,1,02,211,,,,214,55,213,*5F
$GPGGA,212953.0,3437.854090,S,05822.324500,W,1,08,0.9,12.6,M,22.0,M,,*67
$GPVTG,222.1,T,227.6,M,3.3,N,6.0,K,A*27
$GPGSA,A,2,03,06,07,09,16,22,23,30,,,,,1.2,0.9,0.8*3F
$GNGSA,A,2,03,06,07,09,16,22,23,30,,,,,1.2,0.9,0.8*21
$GNGSA,A,2,70,71,73,87,,,,,,,,,1.2,0.9,0.8*25
$BDGSA,A,2,,,,,,,,,,,,,1.2,0.9,0.8*20
$GPRMC,212953.0,A,3437.854090,S,05822.324500,W,3.3,222.1,020517,5.5,W,A*1A
$GLGSV,2,1,08,70,39,091,20,86,09,289,14,73,68,081,29,80,30,144,25*6D
$GLGSV,2,2,08,87,12,236,21,71,55,175,35,72,17,224,16,74,29,352,*6A
$GPGSV,3,1,11,01,04,005,16,02,07,219,16,03,49,056,26,06,35,253,26*7D
$GPGSV,3,2,11,07,48,326,24,09,56,224,24,16,23,101,33,22,20,049,23*72
$GPGSV,3,3,11,23,56,143,35,26,13,129,15,30,11,323,*42
$BDGSV,1,1,02,211,,,,214,55,213,*5F
$GPGGA,212954.0,3437.854755,S,05822.322733,W,1,08,0.9,17.7,M,22.0,M,,*6E
$GPVTG,223.5,T,229.0,M,2.9,N,5.3,K,A*21
$GPGSA,A,2,03,06,07,09,16,22,23,30,,,,,1.2,0.9,0.8*3F
$GNGSA,A,2,03,06,07,09,16,22,23,30,,,,,1.2,0.9,0.8*21
$GNGSA,A,2,70,71,73,87,,,,,,,,,1.2,0.9,0.8*25
$BDGSA,A,2,,,,,,,,,,,,,1.2,0.9,0.8*20
$GPRMC,212954.0,A,3437.854755,S,05822.322733,W,2.9,223.5,020517,5.5,W,A*19
$GLGSV,2,1,08,70,39,091,22,86,09,289,14,73,68,081,27,80,30,144,29*6D
$GLGSV,2,2,08,87,12,236,20,71,55,175,36,72,17,224,17,74,29,352,*69
$GPGSV,3,1,11,01,04,005,16,02,07,219,16,03,49,056,24,06,35,253,26*7F
$GPGSV,3,2,11,07,48,326,26,09,56,224,24,16,23,101,30,22,20,049,22*72
$GPGSV,3,3,11,23,56,143,35,26,13,129,15,30,11,323,16*45
$BDGSV,1,1,02,211,,,,214,55,213,*5F
$GPGGA,212955.0,3437.855914,S,05822.323074,W,1,08,0.9,17.5,M,22.0,M,,*62
$GPVTG,215.2,T,220.7,M,2.8,N,5.2,K,A*2D
$GPGSA,A,2,03,06,07,09,16,22,23,30,,,,,1.2,0.9,0.8*3F
$GNGSA,A,2,03,06,07,09,16,22,23,30,,,,,1.2,0.9,0.8*21
$GNGSA,A,2,70,71,73,87,,,,,,,,,1.2,0.9,0.8*25
$BDGSA,A,2,,,,,,,,,,,,,1.2,0.9,0.8*20
$GPRMC,212955.0,A,3437.855914,S,05822.323074,W,2.8,215.2,020517,5.5,W,A*14
$GLGSV,2,1,08,70,39,091,22,86,09,289,14,73,68,081,24,80,30,144,29*6E
$GLGSV,2,2,08,87,12,236,20,71,55,175,35,72,17,224,16,74,29,352,*6B
$GPGSV,3,1,11,01,04,005,16,02,07,219,16,03,49,056,23,06,35,253,25*7B
$GPGSV,3,2,11,07,48,326,23,09,56,224,22,16,23,101,28,22,20,049,23*79
$GPGSV,3,3,11,23,56,143,36,26,13,129,15,30,11,323,*41
$BDGSV,1,1,02,211,,,,214,55,213,*5F
$GPGGA,212956.0,3437.856637,S,05822.322333,W,1,08,0.9,20.1,M,22.0,M,,*6D
$GPVTG,202.3,T,207.8,M,2.0,N,3.7,K,A*2B
$GPGSA,A,2,03,06,07,09,16,22,23,30,,,,,1.2,0.9,0.8*3F
$GNGSA,A,2,03,06,07,09,16,22,23,30,,,,,1.2,0.9,0.8*21
$GNGSA,A,2,70,71,73,87,,,,,,,,,1.2,0.9,0.8*25
$BDGSA,A,2,,,,,,,,,,,,,1.2,0.9,0.8*20
$GPRMC,212956.0,A,3437.856637,S,05822.322333,W,2.0,202.3,020517,5.5,W,A*14
$GLGSV,2,1,08,70,39,091,20,86,09,289,14,73,68,081,27,80,30,144,25*63
$GLGSV,2,2,08,87,12,236,19,71,55,175,37,72,17,224,16,74,29,352,*63
$GPGSV,3,1,11,01,04,005,16,02,07,219,15,03,49,056,22,06,35,253,22*7E
$GPGSV,3,2,11,07,48,326,24,09,56,224,21,16,23,101,26,22,20,049,27*77
$GPGSV,3,3,11,23,56,143,36,26,13,129,16,30,11,323,21*41
$BDGSV,1,1,02,211,,,,214,55,213,*5F
$GPGGA,212957.0,3437.855699,S,05822.322766,W,1,08,0.9,21.9,M,22.0,M,,*66
$GPVTG,219.8,T,225.3,M,1.5,N,2.8,K,A*29
$GPGSA,A,2,03,06,07,09,16,22,23,30,,,,,1.2,0.9,0.8*3F
$GNGSA,A,2,03,06,07,09,16,22,23,30,,,,,1.2,0.9,0.8*21
$GNGSA,A,2,70,71,73,87,,,,,,,,,1.2,0.9,0.8*25
$BDGSA,A,2,,,,,,,,,,,,,1.2,0.9,0.8*20
$GPRMC,212957.0,A,3437.855699,S,05822.322766,W,1.5,219.8,020517,5.5,W,A*11
$GLGSV,2,1,08,70,39,091,22,86,09,289,14,73,68,081,26,80,30,144,18*6E
$GLGSV,2,2,08,87,12,236,17,71,55,175,35,72,17,224,15,74,29,352,*6C
$GPGSV,3,1,11,01,04,005,16,02,07,219,15,03,49,056,20,06,35,253,24*7A
$GPGSV,3,2,11,07,48,326,28,16,23,101,24,22,20,049,26,23,56,143,35*77
$GPGSV,3,3,11,30,11,323,18,09,56,224,,26,13,129,*43
$BDGSV,1,1,02,211,,,,214,55,213,*5F
$GPGGA,212958.0,3437.857084,S,05822.322928,W,1,10,0.7,22.2,M,22.0,M,,*6A
$GPVTG,215.7,T,221.2,M,2.6,N,4.8,K,A*29
$GPGSA,A,2,01,02,03,06,07,09,16,22,23,30,,,1.0,0.7,0.7*3F
$GNGSA,A,2,01,02,03,06,07,09,16,22,23,30,,,1.0,0.7,0.7*21
$GNGSA,A,2,70,71,72,73,86,87,,,,,,,1.0,0.7,0.7*2D
$BDGSA,A,2,,,,,,,,,,,,,1.0,0.7,0.7*23
$GPRMC,212958.0,A,3437.857084,S,05822.322928,W,2.6,215.7,020517,5.5,W,A*11
$GLGSV,2,1,08,70,39,091,27,86,09,289,14,73,68,081,30,80,30,144,18*6C
$GLGSV,2,2,08,87,12,236,17,71,55,175,37,72,17,224,15,74,29,352,*6E
$GPGSV,3,1,11,01,04,005,16,02,07,219,15,03,49,056,27,06,35,253,24*7D
$GPGSV,3,2,11,07,48,326,29,09,56,224,25,16,23,101,24,22,20,049,29*72
$GPGSV,3,3,11,23,56,143,38,26,13,129,21,30,11,323,17*4E
$BDGSV,1,1,02,211,,,,214,55,213,*5F
$GPGGA,212959.0,3437.858537,S,05822.323211,W,1,11,0.6,22.5,M,22.0,M,,*6E
$GPVTG,218.3,T,223.8,M,3.0,N,5.6,K,A*20
$GPGSA,A,2,01,02,03,06,07,09,16,22,23,26,30,,0.9,0.6,0.7*32
$GNGSA,A,2,01,02,03,06,07,09,16,22,23,26,30,,0.9,0.6,0.7*2C
$GNGSA,A,2,70,71,72,73,86,87,,,,,,,0.9,0.6,0.7*24
$BDGSA,A,2,,,,,,,,,,,,,0.9,0.6,0.7*2A
$GPRMC,212959.0,A,3437.858537,S,05822.323211,W,3.0,218.3,020517,5.5,W,A*1C
$GLGSV,2,1,08,70,39,091,26,86,09,289,14,73,68,081,31,80,30,144,18*6C
$GLGSV,2,2,08,87,12,236,19,71,55,175,38,72,17,224,15,74,29,352,*6F
$GPGSV,3,1,11,01,04,005,16,02,07,219,15,03,49,056,31,06,35,253,24*7A
$GPGSV,3,2,11,07,48,326,28,09,56,224,24,16,23,101,26,22,20,049,29*70
$GPGSV,3,3,11,23,56,143,39,30,11,323,17,26,13,129,*4C
$BDGSV,1,1,02,211,,,,214,55,213,*5F
$GPGGA,213000.0,3437.859933,S,05822.324000,W,1,11,0.6,20.2,M,22.0,M,,*63
$GPVTG,211.6,T,217.1,M,2.3,N,4.2,K,A*25
$GPGSA,A,2,01,02,03,06,07,09,16,22,23,26,30,,0.9,0.6,0.7*32
$GNGSA,A,2,01,02,03,06,07,09,16,22,23,26,30,,0.9,0.6,0.7*2C
$GNGSA,A,2,70,71,72,73,86,87,,,,,,,0.9,0.6,0.7*24
$BDGSA,A,2,,,,,,,,,,,,,0.9,0.6,0.7*2A
$GPRMC,213000.0,A,3437.859933,S,05822.324000,W,2.3,211.6,020517,5.5,W,A*1A
$GLGSV,2,1,08,70,39,091,23,86,09,289,14,73,68,081,31,80,30,144,15*64
$GLGSV,2,2,08,87,12,236,19,71,55,175,36,72,17,224,15,74,29,352,*61
$GPGSV,3,1,11,01,04,005,16,02,07,219,18,03,49,056,30,06,35,253,22*70
$GPGSV,3,2,11,07,48,326,24,09,56,224,24,16,23,101,24,22,20,049,26*71
$GPGSV,3,3,11,23,56,143,39,30,11,323,17,26,13,129,*4C
$BDGSV,1,1,02,211,,,,214,55,213,*5F
$GPGGA,213001.0,3437.860761,S,05822.324487,W,1,11,0.6,21.0,M,22.0,M,,*69
$GPVTG,214.0,T,219.5,M,2.9,N,5.4,K,A*21
$GPGSA,A,2,01,02,03,06,07,09,16,22,23,26,30,,0.9,0.6,0.7*32
$GNGSA,A,2,01,02,03,06,07,09,16,22,23,26,30,,0.9,0.6,0.7*2C
$GNGSA,A,2,70,71,72,73,86,87,,,,,,,0.9,0.6,0.7*24
$BDGSA,A,2,,,,,,,,,,,,,0.9,0.6,0.7*2A
$GPRMC,213001.0,A,3437.860761,S,05822.324487,W,2.9,214.0,020517,5.5,W,A*1A
$GLGSV,2,1,08,70,39,091,18,86,09,289,14,73,68,081,32,80,30,144,24*6D
$GLGSV,2,2,08,87,12,236,19,71,55,175,37,72,17,224,15,74,29,352,*60
$GPGSV,3,1,11,01,04,005,16,02,07,219,18,03,49,056,31,06,35,253,21*72
$GPGSV,3,2,11,07,48,326,21,09,56,224,24,16,23,101,28,22,20,049,23*7D
$GPGSV,3,3,11,23,56,143,34,30,11,323,16,26,13,129,*40
$BDGSV,1,1,02,211,,,,214,55,213,*5F
$GPGGA,213002.0,3437.861402,S,05822.325137,W,1,11,0.6,20.6,M,22.0,M,,*65
$GPVTG,207.2,T,212.7,M,2.9,N,5.4,K,A*28
$GPGSA,A,2,01,02,03,06,07,09,16,22,23,26,30,,0.9,0.6,0.7*32
$GNGSA,A,2,01,02,03,06,07,09,16,22,23,26,30,,0.9,0.6,0.7*2C
$GNGSA,A,2,70,71,72,73,86,87,,,,,,,0.9,0.6,0.7*24
$BDGSA,A,2,,,,,,,,,,,,,0.9,0.6,0.7*2A
$GPRMC,213002.0,A,3437.861402,S,05822.325137,W,2.9,207.2,020517,5.5,W,A*11
$GLGSV,2,1,08,70,39,091,16,86,09,289,14,73,68,081,32,80,30,144,23*64
$GLGSV,2,2,08,87,12,236,16,71,55,175,34,72,17,224,15,74,29,352,*6C
$GPGSV,3,1,11,01,04,005,16,02,07,219,16,03,49,056,31,06,35,253,22*7F
$GPGSV,3,2,11,07,48,326,23,09,56,224,26,16,23,101,25,22,20,049,24*77
$GPGSV,3,3,11,23,56,143,25,30,11,323,16,26,13,129,*40
$BDGSV,1,1,02,211,,,,214,55,213,*5F
$GPGGA,213003.0,3437.862647,S,05822.326920,W,1,11,0.6,19.2,M,22.0,M,,*67
$GPVTG,201.1,T,206.6,M,2.6,N,4.8,K,A*2B
$GPGSA,A,2,01,02,03,06,07,09,16,22,23,26,30,,0.9,0.6,0.7*32
$GNGSA,A,2,01,02,03,06,07,09,16,22,23,26,30,,0.9,0.6,0.7*2C
$GNGSA,A,2,70,71,72,73,86,87,,,,,,,0.9,0.6,0.7*24
$BDGSA,A,2,,,,,,,,,,,,,0.9,0.6,0.7*2A
$GPRMC,213003.0,A,3437.862647,S,05822.326920,W,2.6,201.1,020517,5.5,W,A*17
$GLGSV,2,1,08,74,29,352,15,70,39,091,16,86,09,289,15,73,68,081,31*65
$GLGSV,2,2,08,80,30,144,22,87,12,236,16,71,55,175,31,72,17,224,15*6F
$GPGSV,3,1,11,01,04,005,15,02,07,219,16,03,49,056,31,06,35,253,22*7C
$GPGSV,3,2,11,07,48,326,21,09,56,224,26,16,23,101,20,22,20,049,27*73
$GPGSV,3,3,11,23,56,143,29,30,11,323,16,26,13,129,*4C
$BDGSV,1,1,02,211,,,,214,55,213,*5F
$GPGGA,213004.0,3437.863775,S,05822.327890,W,1,11,0.6,18.3,M,22.0,M,,*6A
$GPVTG,189.8,T,195.3,M,3.0,N,5.5,K,A*26
$GPGSA,A,2,01,02,03,06,07,09,16,22,23,26,30,,0.9,0.6,0.7*32
$GNGSA,A,2,01,02,03,06,07,09,16,22,23,26,30,,0.9,0.6,0.7*2C
$GNGSA,A,2,70,71,73,74,86,87,,,,,,,0.9,0.6,0.7*22
$BDGSA,A,2,,,,,,,,,,,,,0.9,0.6,0.7*2A
$GPRMC,213004.0,A,3437.863775,S,05822.327890,W,3.0,189.8,020517,5.5,W,A*17
$GLGSV,2,1,08,74,29,352,15,70,39,091,16,86,09,289,15,73,68,081,32*66
$GLGSV,2,2,08,80,30,144,19,87,12,236,19,71,55,175,34,72,17,224,15*6D
$GPGSV,3,1,11,01,04,005,20,02,07,219,16,03,49,056,29,06,35,253,22*73
$GPGSV,3,2,11,07,48,326,21,09,56,224,24,16,23,101,22,22,20,049,25*71
$GPGSV,3,3,11,23,56,143,27,26,13,129,16,30,11,323,16*45
$BDGSV,1,1,02,211,,,,214,55,213,*5F
$GPGGA,213005.0,3437.864110,S,05822.327856,W,1,11,0.6,17.2,M,22.0,M,,*6D
$GPVTG,190.0,T,195.5,M,2.2,N,4.1,K,A*26
$GPGSA,A,2,01,02,03,06,07,09,16,22,23,26,30,,0.9,0.6,0.7*32
$GNGSA,A,2,01,02,03,06,07,09,16,22,23,26,30,,0.9,0.6,0.7*2C
$GNGSA,A,2,70,71,73,74,86,87,,,,,,,0.9,0.6,0.7*22
$BDGSA,A,2,,,,,,,,,,,,,0.9,0.6,0.7*2A
$GPRMC,213005.0,A,3437.864110,S,05822.327856,W,2.2,190.0,020517,5.5,W,A*1D
$GLGSV,2,1,08,74,29,352,15,70,39,091,18,86,09,289,15,73,68,081,33*69
$GLGSV,2,2,08,80,30,144,20,87,12,236,19,71,55,175,31,72,17,224,14*63
$GPGSV,3,1,11,01,04,005,20,02,07,219,16,03,49,056,24,06,35,253,22*7E
$GPGSV,3,2,11,07,48,326,25,09,56,224,26,16,23,101,22,22,20,049,27*75
$GPGSV,3,3,11,23,56,143,27,26,13,129,16,30,11,323,17*44
$BDGSV,1,1,02,214,55,213,33,211,,,*5F
$GPGGA,213006.0,3437.864260,S,05822.329072,W,1,11,0.6,16.8,M,22.0,M,,*61
$GPVTG,190.6,T,196.1,M,1.2,N,2.2,K,A*21
$GPGSA,A,2,01,02,03,06,07,09,16,22,23,26,30,,0.9,0.6,0.7*32
$GNGSA,A,2,01,02,03,06,07,09,16,22,23,26,30,,0.9,0.6,0.7*2C
$GNGSA,A,2,70,71,72,73,74,86,87,,,,,,0.9,0.6,0.7*27
$BDGSA,A,2,,,,,,,,,,,,,0.9,0.6,0.7*2A
$GPRMC,213006.0,A,3437.864260,S,05822.329072,W,1.2,190.6,020517,5.5,W,A*1F
$GLGSV,2,1,08,74,29,352,15,70,39,091,16,86,09,289,15,73,68,081,30*64
$GLGSV,2,2,08,80,30,144,20,87,12,236,16,71,55,175,35,72,17,224,14*68
$GPGSV,3,1,11,01,04,005,20,02,07,219,16,03,49,056,31,06,35,253,24*7C
$GPGSV,3,2,11,07,48,326,24,09,56,224,31,16,23,101,19,22,20,049,27*7A
$GPGSV,3,3,11,23,56,143,24,26,13,129,16,30,11,323,17*47
$BDGSV,1,1,02,214,55,213,32,211,,,*5E
$GPGGA,213007.0,3437.864901,S,05822.329797,W,1,11,0.6,16.1,M,22.0,M,,*69
$GPVTG,190.7,T,196.2,M,2.4,N,4.5,K,A*27
$GPGSA,A,2,01,02,03,06,07,09,16,22,23,26,30,,0.9,0.6,0.7*32
$GNGSA,A,2,01,02,03,06,07,09,16,22,23,26,30,,0.9,0.6,0.7*2C
$GNGSA,A,2,70,71,72,73,74,86,87,,,,,,0.9,0.6,0.7*27
$BDGSA,A,2,,,,,,,,,,,,,0.9,0.6,0.7*2A
$GPRMC,213007.0,A,3437.864901,S,05822.329797,W,2.4,190.7,020517,5.5,W,A*1A
$GLGSV,2,1,08,74,29,352,14,70,39,091,16,86,09,289,15,73,68,081,30*65
$GLGSV,2,2,08,80,30,144,16,87,12,236,16,71,55,175,33,72,17,224,14*6B
$GPGSV,3,1,11,01,04,005,20,02,07,219,16,03,49,056,35,06,35,253,22*7E
$GPGSV,3,2,11,07,48,326,23,09,56,224,29,16,23,101,20,22,20,049,29*70
$GPGSV,3,3,11,23,56,143,22,26,13,129,16,30,11,323,16*40
$BDGSV,1,1,02,214,55,213,31,211,,,*5D
$GPGGA,213008.0,3437.865518,S,05822.330958,W,1,11,0.6,14.9,M,22.0,M,,*6C
$GPVTG,190.8,T,196.3,M,2.6,N,4.8,K,A*26
$GPGSA,A,2,01,02,03,06,07,09,16,22,23,26,30,,0.9,0.6,0.7*32
$GNGSA,A,2,01,02,03,06,07,09,16,22,23,26,30,,0.9,0.6,0.7*2C
$GNGSA,A,2,70,71,72,73,74,86,87,,,,,,0.9,0.6,0.7*27
$BDGSA,A,2,,,,,,,,,,,,,0.9,0.6,0.7*2A
$GPRMC,213008.0,A,3437.865518,S,05822.330958,W,2.6,190.8,020517,5.5,W,A*18
$GLGSV,2,1,08,74,29,352,14,70,39,091,16,86,09,289,15,73,68,081,30*65
$GLGSV,2,2,08,80,30,144,16,87,12,236,16,71,55,175,35,72,17,224,14*6D
$GPGSV,3,1,11,01,04,005,20,02,07,219,16,03,49,056,35,06,35,253,23*7F
$GPGSV,3,2,11,07,48,326,20,09,56,224,30,16,23,101,21,22,20,049,26*75
$GPGSV,3,3,11,23,56,143,25,26,13,129,16,30,11,323,16*47
$BDGSV,1,1,02,214,55,213,29,211,,,*54
$GPGGA,213009.0,3437.866372,S,05822.331641,W,1,11,0.6,14.2,M,22.0,M,,*69
$GPVTG,190.9,T,196.4,M,2.5,N,4.7,K,A*2C
$GPGSA,A,2,01,02,03,06,07,09,16,22,23,26,30,,0.9,0.6,0.7*32
$GNGSA,A,2,01,02,03,06,07,09,16,22,23,26,30,,0.9,0.6,0.7*2C
$GNGSA,A,2,70,71,72,73,74,86,87,,,,,,0.9,0.6,0.7*27
$BDGSA,A,2,,,,,,,,,,,,,0.9,0.6,0.7*2A
$GPRMC,213009.0,A,3437.866372,S,05822.331641,W,2.5,190.9,020517,5.5,W,A*14
$GLGSV,2,1,08,74,29,352,14,70,39,091,17,86,09,289,15,73,68,081,27*62
$GLGSV,2,2,08,80,30,144,16,87,12,236,13,71,55,175,35,72,17,224,14*68
$GPGSV,3,1,11,01,04,005,14,02,07,219,16,03,49,056,34,06,35,253,22*78
$GPGSV,3,2,11,07,48,326,25,09,56,224,26,16,23,101,21,22,20,049,27*76
$GPGSV,3,3,11,23,56,143,27,26,13,129,16,30,11,323,16*45
$BDGSV,1,1,02,214,55,213,28,211,,,*55
$GPGGA,213010.0,3437.867172,S,05822.332311,W,1,10,0.6,13.8,M,22.0,M,,*6D
$GPVTG,210.7,T,216.2,M,3.1,N,5.7,K,A*20
$GPGSA,A,2,02,03,06,07,09,16,22,23,26,30,,,0.9,0.6,0.7*33
$GNGSA,A,2,02,03,06,07,09,16,22,23,26,30,,,0.9,0.6,0.7*2D
$GNGSA,A,2,70,71,72,73,74,86,87,,,,,,0.9,0.6,0.7*27
$BDGSA,A,2,,,,,,,,,,,,,0.9,0.6,0.7*2A
$GPRMC,213010.0,A,3437.867172,S,05822.332311,W,3.1,210.7,020517,5.5,W,A*1C
$GLGSV,2,1,08,74,29,352,14,70,39,091,19,86,09,289,15,73,68,081,26*6D
$GLGSV,2,2,08,80,30,144,16,87,12,236,13,71,55,175,32,72,17,224,14*6F
$GPGSV,3,1,11,01,04,005,14,02,07,219,16,03,49,056,34,06,35,253,21*7B
$GPGSV,3,2,11,07,48,326,25,09,56,224,21,16,23,101,26,22,20,049,25*74
$GPGSV,3,3,11,23,56,143,29,26,13,129,15,30,11,323,16*48
$BDGSV,1,1,02,214,55,213,24,211,,,*59
$GPGGA,213011.0,3437.867864,S,05822.333327,W,1,10,0.6,14.1,M,22.0,M,,*68
$GPVTG,215.7,T,221.2,M,2.9,N,5.3,K,A*2C
$GPGSA,A,2,02,03,06,07,09,16,22,23,26,30,,,0.9,0.6,0.7*33
$GNGSA,A,2,02,03,06,07,09,16,22,23,26,30,,,0.9,0.6,0.7*2D
$GNGSA,A,2,70,71,72,73,74,86,87,,,,,,0.9,0.6,0.7*27
$BDGSA,A,2,,,,,,,,,,,,,0.9,0.6,0.7*2A
$GPRMC,213011.0,A,3437.867864,S,05822.333327,W,2.9,215.7,020517,5.5,W,A*1B
$GLGSV,2,1,08,70,39,091,23,86,09,289,15,73,68,081,26,80,30,144,16*60
$GLGSV,2,2,08,87,12,236,15,71,55,175,27,72,17,224,14,74,29,352,*6C
$GPGSV,3,1,11,01,04,005,14,02,07,219,16,03,49,056,33,06,35,253,19*77
$GPGSV,3,2,11,07,48,326,26,09,56,224,28,16,23,101,29,22,20,049,31*74
$GPGSV,3,3,11,23,56,143,27,26,13,129,15,30,11,323,18*48
$BDGSV,1,1,02,214,55,213,25,211,,,*58
$GPGGA,213012.0,3437.868997,S,05822.332757,W,1,10,0.6,14.1,M,22.0,M,,*6B
$GPVTG,205.1,T,210.6,M,2.2,N,4.1,K,A*25
$GPGSA,A,2,02,03,06,07,09,16,22,23,26,30,,,0.9,0.6,0.7*33
$GNGSA,A,2,02,03,06,07,09,16,22,23,26,30,,,0.9,0.6,0.7*2D
$GNGSA,A,2,70,71,73,74,86,87,,,,,,,0.9,0.6,0.7*22
$BDGSA,A,2,,,,,,,,,,,,,0.9,0.6,0.7*2A
$GPRMC,213012.0,A,3437.868997,S,05822.332757,W,2.2,205.1,020517,5.5,W,A*14
$GLGSV,2,1,08,70,39,091,24,86,09,289,13,73,68,081,24,80,30,144,16*63
$GLGSV,2,2,08,87,12,236,15,71,55,175,27,72,17,224,14,74,29,352,*6C
$GPGSV,3,1,11,01,04,005,14,02,07,219,16,03,49,056,34,06,35,253,22*78
$GPGSV,3,2,11,07,48,326,23,09,56,224,28,16,23,101,35,22,20,049,28*74
$GPGSV,3,3,11,23,56,143,31,30,11,323,20,26,13,129,*40
$BDGSV,1,1,02,214,55,213,28,211,,,*55
$GPGGA,213013.0,3437.869008,S,05822.333045,W,1,10,0.6,14.7,M,22.0,M,,*67
$GPVTG,191.1,T,196.6,M,1.3,N,2.4,K,A*27
$GPGSA,A,2,02,03,06,07,09,16,22,23,26,30,,,0.9,0.6,0.7*33
$GNGSA,A,2,02,03,06,07,09,16,22,23,26,30,,,0.9,0.6,0.7*2D
$GNGSA,A,2,70,71,73,74,86,87,,,,,,,0.9,0.6,0.7*22
$BDGSA,A,2,,,,,,,,,,,,,0.9,0.6,0.7*2A
$GPRMC,213013.0,A,3437.869008,S,05822.333045,W,1.3,191.1,020517,5.5,W,A*12
$GLGSV,2,1,08,70,39,091,25,86,09,289,13,73,68,081,22,80,30,144,16*64
$GLGSV,2,2,08,87,12,236,15,71,55,175,31,72,17,224,14,74,29,352,*6B
$GPGSV,3,1,11,01,04,005,14,02,07,219,17,03,49,056,28,06,35,253,25*73
$GPGSV,3,2,11,07,48,326,25,09,56,224,28,16,23,101,37,22,20,049,29*71
$GPGSV,3,3,11,23,56,143,30,26,13,129,,30,11,323,*43
$BDGSV,1,1,02,214,55,213,33,211,,,*5F
$GPGGA,213014.0,3437.869310,S,05822.333737,W,1,10,0.6,16.3,M,22.0,M,,*6E
$GPVTG,216.5,T,222.0,M,1.9,N,3.5,K,A*2F
$GPGSA,A,2,02,03,06,07,09,16,22,23,26,30,,,0.9,0.6,0.7*33
$GNGSA,A,2,02,03,06,07,09,16,22,23,26,30,,,0.9,0.6,0.7*2D
$GNGSA,A,2,70,71,73,74,86,87,,,,,,,0.9,0.6,0.7*22
$BDGSA,A,2,,,,,,,,,,,,,0.9,0.6,0.7*2A
$GPRMC,213014.0,A,3437.869310,S,05822.333737,W,1.9,216.5,020517,5.5,W,A*1F
$GLGSV,2,1,08,70,39,091,20,86,09,289,13,73,68,081,18,80,30,144,16*68
$GLGSV,2,2,08,87,12,236,15,71,55,175,35,72,17,224,16,74,29,352,*6D
$GPGSV,3,1,11,01,04,005,15,02,07,219,19,03,49,056,29,06,35,253,22*7A
$GPGSV,3,2,11,07,48,326,27,09,56,224,27,16,23,101,32,22,20,049,29*79
$GPGSV,3,3,11,23,56,143,34,26,13,129,,30,11,323,*47
$BDGSV,1,1,02,214,55,213,31,211,,,*5D
$GPGGA,213015.0,3437.869685,S,05822.334642,W,1,10,0.6,16.6,M,22.0,M,,*67
$GPVTG,250.7,T,256.2,M,1.7,N,3.1,K,A*24
$GPGSA,A,2,02,03,06,07,09,16,22,23,26,30,,,0.9,0.6,0.7*33
$GNGSA,A,2,02,03,06,07,09,16,22,23,26,30,,,0.9,0.6,0.7*2D
$GNGSA,A,2,70,71,73,74,86,87,,,,,,,0.9,0.6,0.7*22
$BDGSA,A,2,,,,,,,,,,,,,0.9,0.6,0.7*2A
$GPRMC,213015.0,A,3437.869685,S,05822.334642,W,1.7,250.7,020517,5.5,W,A*1D
$GLGSV,2,1,08,70,39,091,18,86,09,289,13,73,68,081,19,80,30,144,16*62
$GLGSV,2,2,08,87,12,236,15,71,55,175,33,72,17,224,16,74,29,352,*6B
$GPGSV,3,1,11,01,04,005,15,02,07,219,19,03,49,056,28,06,35,253,23*7A
$GPGSV,3,2,11,07,48,326,24,09,56,224,26,16,23,101,22,22,20,049,29*7A
$GPGSV,3,3,11,23,56,143,36,30,11,323,19,26,13,129,*4D
$BDGSV,1,1,02,214,55,213,27,211,,,*5A
$GPGGA,213016.0,3437.870286,S,05822.335977,W,1,10,0.6,15.9,M,22.0,M,,*6F
$GPVTG,238.1,T,243.6,M,2.1,N,4.0,K,A*2F
$GPGSA,A,2,02,03,06,07,09,16,22,23,26,30,,,0.9,0.6,0.7*33
$GNGSA,A,2,02,03,06,07,09,16,22,23,26,30,,,0.9,0.6,0.7*2D
$GNGSA,A,2,70,71,73,74,86,87,,,,,,,0.9,0.6,0.7*22
$BDGSA,A,2,,,,,,,,,,,,,0.9,0.6,0.7*2A
$GPRMC,213016.0,A,3437.870286,S,05822.335977,W,2.1,238.1,020517,5.5,W,A*14
$GLGSV,2,1,08,70,39,091,22,86,09,289,16,73,68,081,24,80,30,144,16*60
$GLGSV,2,2,08,87,12,236,15,71,55,175,30,72,17,224,17,74,29,352,*69
$GPGSV,3,1,11,01,04,005,15,02,07,219,16,03,49,056,25,06,35,253,22*79
$GPGSV,3,2,11,07,48,326,28,09,56,224,27,16,23,101,19,22,20,049,25*73
$GPGSV,3,3,11,23,56,143,35,30,11,323,19,26,13,129,*4E
$BDGSV,1,1,02,214,55,213,29,211,,,*54
$GPGGA,213017.0,3437.871349,S,05822.335447,W,1,10,0.7,15.6,M,22.0,M,,*6D
$GPVTG,205.7,T,211.2,M,2.2,N,4.2,K,A*25
$GPGSA,A,2,02,03,06,07,09,16,22,23,26,30,,,1.0,0.7,0.7*3A
$GNGSA,A,2,02,03,06,07,09,16,22,23,26,30,,,1.0,0.7,0.7*24
$GNGSA,A,2,70,71,72,73,86,87,,,,,,,1.0,0.7,0.7*2D
$BDGSA,A,2,,,,,,,,,,,,,1.0,0.7,0.7*23
$GPRMC,213017.0,A,3437.871349,S,05822.335447,W,2.2,205.7,020517,5.5,W,A*13
$GLGSV,2,1,08,70,39,091,22,86,09,289,16,73,68,081,23,80,30,144,16*67
$GLGSV,2,2,08,87,12,236,15,71,55,175,29,72,17,224,17,74,29,352,*61
$GPGSV,3,1,11,01,04,005,15,02,07,219,16,03,49,056,23,06,35,253,24*79
$GPGSV,3,2,11,07,48,326,31,09,56,224,26,16,23,101,19,22,20,049,23*7C
$GPGSV,3,3,11,23,56,143,30,30,11,323,20,26,13,129,*41
$BDGSV,1,1,02,214,55,213,28,211,,,*55
$GPGGA,213018.0,3437.872198,S,05822.335908,W,1,09,0.7,15.6,M,22.0,M,,*61
$GPVTG,204.5,T,210.0,M,2.3,N,4.3,K,A*25
$GPGSA,A,2,02,03,06,07,09,16,22,23,30,,,,1.0,0.7,0.7*3E
$GNGSA,A,2,02,03,06,07,09,16,22,23,30,,,,1.0,0.7,0.7*20
$GNGSA,A,2,70,71,72,73,86,87,,,,,,,1.0,0.7,0.7*2D
$BDGSA,A,2,,,,,,,,,,,,,1.0,0.7,0.7*23
$GPRMC,213018.0,A,3437.872198,S,05822.335908,W,2.3,204.5,020517,5.5,W,A*15
$GLGSV,2,1,08,70,39,091,16,86,09,289,16,73,68,081,24,80,30,144,16*67
$GLGSV,2,2,08,87,12,236,15,71,55,175,34,72,17,224,17,74,29,352,*6D
$GPGSV,3,1,11,01,04,005,15,02,07,219,16,03,49,056,28,06,35,253,23*75
$GPGSV,3,2,11,07,48,326,26,09,56,224,25,16,23,101,19,22,20,049,24*7E
$GPGSV,3,3,11,23,56,143,32,30,11,323,24,26,13,129,*47
$BDGSV,1,1,02,214,55,213,27,211,,,*5A
$GPGGA,213019.0,3437.873145,S,05822.335912,W,1,09,0.7,15.4,M,22.0,M,,*68
$GPVTG,195.1,T,200.6,M,1.3,N,2.5,K,A*2E
$GPGSA,A,2,02,03,06,07,09,16,22,23,30,,,,1.0,0.7,0.7*3E
$GNGSA,A,2,02,03,06,07,09,16,22,23,30,,,,1.0,0.7,0.7*20
$GNGSA,A,2,70,71,72,73,86,87,,,,,,,1.0,0.7,0.7*2D
$BDGSA,A,2,,,,,,,,,,,,,1.0,0.7,0.7*23
$GPRMC,213019.0,A,3437.873145,S,05822.335912,W,1.3,195.1,020517,5.5,W,A*12
$GLGSV,2,1,08,70,39,091,16,86,09,289,16,73,68,081,26,80,30,144,16*65
$GLGSV,2,2,08,87,12,236,15,71,55,175,34,72,17,224,17,74,29,352,*6D
$GPGSV,3,1,11,01,04,005,15,02,07,219,16,03,49,056,32,06,35,253,23*7E
$GPGSV,3,2,11,07,48,326,26,09,56,224,27,16,23,101,15,22,20,049,26*72
$GPGSV,3,3,11,23,56,143,35,30,11,323,24,26,13,129,*40
$BDGSV,1,1,02,214,55,213,27,211,,,*5A
$GPGGA,213020.0,3437.873988,S,05822.337513,W,1,09,0.7,15.2,M,22.0,M,,*62
$GPVTG,220.6,T,226.1,M,2.5,N,4.7,K,A*26
$GPGSA,A,2,02,03,06,07,09,16,22,23,30,,,,1.0,0.7,0.7*3E
$GNGSA,A,2,02,03,06,07,09,16,22,23,30,,,,1.0,0.7,0.7*20
$GNGSA,A,2,70,71,72,73,86,87,,,,,,,1.0,0.7,0.7*2D
$BDGSA,A,2,,,,,,,,,,,,,1.0,0.7,0.7*23
$GPRMC,213020.0,A,3437.873988,S,05822.337513,W,2.5,220.6,020517,5.5,W,A*11
$GLGSV,2,1,08,70,39,091,16,86,09,289,18,73,68,081,29,80,30,144,7*54
$GLGSV,2,2,08,87,12,236,15,71,55,175,29,72,17,224,17,74,29,352,*61
$GPGSV,3,1,11,01,04,005,13,02,07,219,14,03,49,056,32,06,35,253,25*7C
$GPGSV,3,2,11,07,48,326,25,09,56,224,30,16,23,101,15,22,20,049,25*74
$GPGSV,3,3,11,23,56,143,36,30,11,323,18,26,13,129,*4C
$BDGSV,1,1,02,214,55,213,27,211,,,*5A
$GPGGA,213021.0,3437.874896,S,05822.339446,W,1,09,0.7,14.3,M,22.0,M,,*65
$GPVTG,222.9,T,228.4,M,3.0,N,5.6,K,A*24
$GPGSA,A,2,02,03,06,07,09,16,22,23,30,,,,1.0,0.7,0.7*3E
$GNGSA,A,2,02,03,06,07,09,16,22,23,30,,,,1.0,0.7,0.7*20
$GNGSA,A,2,70,71,72,73,86,87,,,,,,,1.0,0.7,0.7*2D
$BDGSA,A,2,,,,,,,,,,,,,1.0,0.7,0.7*23
$GPRMC,213021.0,A,3437.874896,S,05822.339446,W,3.0,222.9,020517,5.5,W,A*1F
$GLGSV,2,1,08,70,39,091,16,86,09,289,18,73,68,081,29,80,30,144,7*54
$GLGSV,2,2,08,87,12,236,15,71,55,175,31,72,17,224,15,74,29,352,*6A
$GPGSV,3,1,11,01,04,005,13,02,07,219,14,03,49,056,30,06,35,253,19*71
$GPGSV,3,2,11,07,48,326,24,09,56,224,27,16,23,101,15,22,20,049,25*73
$GPGSV,3,3,11,23,56,143,34,30,11,323,21,26,13,129,*44
$BDGSV,1,1,02,214,55,213,28,211,,,*55
$GPGGA,213022.0,3437.875945,S,05822.340124,W,1,09,0.7,14.1,M,22.0,M,,*65
$GPVTG,224.4,T,229.8,M,2.7,N,4.9,K,A*2A
$GPGSA,A,2,02,03,06,07,09,16,22,23,30,,,,1.0,0.7,0.7*3E
$GNGSA,A,2,02,03,06,07,09,16,22,23,30,,,,1.0,0.7,0.7*20
$GNGSA,A,2,70,71,72,73,86,87,,,,,,,1.0,0.7,0.7*2D
$BDGSA,A,2,,,,,,,,,,,,,1.0,0.7,0.7*23
$GPRMC,213022.0,A,3437.875945,S,05822.340124,W,2.7,224.4,020517,5.5,W,A*10
$GLGSV,2,1,08,70,39,091,16,86,09,289,18,73,68,081,26,80,30,144,7*5B
$GLGSV,2,2,08,87,12,236,15,71,55,175,32,72,17,224,18,74,29,352,*64
$GPGSV,3,1,11,01,04,005,13,02,07,219,14,03,49,056,31,06,35,253,24*7E
$GPGSV,3,2,11,07,48,326,25,09,56,224,24,16,23,101,15,22,20,049,26*72
$GPGSV,3,3,11,23,56,143,32,30,11,323,21,26,13,129,*42
$BDGSV,1,1,02,214,55,213,27,211,,,*5A
$GPGGA,213023.0,3437.876776,S,05822.340683,W,1,07,0.9,13.7,M,22.0,M,,*62
$GPVTG,212.3,T,217.8,M,2.6,N,4.8,K,A*25
$GPGSA,A,2,03,06,07,09,22,23,30,,,,,,1.2,0.9,0.8*38
$GNGSA,A,2,03,06,07,09,22,23,30,,,,,,1.2,0.9,0.8*26
$GNGSA,A,2,70,71,72,73,87,,,,,,,,1.2,0.9,0.8*20
$BDGSA,A,2,,,,,,,,,,,,,1.2,0.9,0.8*20
$GPRMC,213023.0,A,3437.876776,S,05822.340683,W,2.6,212.3,020517,5.5,W,A*15
$GLGSV,2,1,08,74,29,352,13,70,39,091,16,86,09,289,18,73,68,081,22*6C
$GLGSV,2,2,08,87,12,236,12,71,55,175,36,72,17,224,18,80,30,144,*61
$GPGSV,3,1,11,01,04,005,13,02,07,219,14,03,49,056,33,06,35,253,28*70
$GPGSV,3,2,11,07,48,326,25,09,56,224,26,16,23,101,15,22,20,049,26*70
$GPGSV,3,3,11,23,56,143,33,30,11,323,27,26,13,129,*45
$BDGSV,1,1,02,214,55,213,28,211,,,*55
$GPGGA,213024.0,3437.878120,S,05822.340736,W,1,07,1.0,14.4,M,22.0,M,,*6D
$GPVTG,208.6,T,214.1,M,4.0,N,7.5,K,A*2F
$GPGSA,A,2,03,06,07,09,22,23,30,,,,,,1.3,1.0,0.8*31
$GNGSA,A,2,03,06,07,09,22,23,30,,,,,,1.3,1.0,0.8*2F
$GNGSA,A,2,70,71,72,73,,,,,,,,,1.3,1.0,0.8*26
$BDGSA,A,2,,,,,,,,,,,,,1.3,1.0,0.8*29
$GPRMC,213024.0,A,3437.878120,S,05822.340736,W,4.0,208.6,020517,5.5,W,A*18
$GLGSV,2,1,08,74,29,352,21,70,39,091,16,86,09,289,15,73,68,081,24*66
$GLGSV,2,2,08,87,12,236,17,71,55,175,37,72,17,224,18,80,30,144,*65
$GPGSV,3,1,11,01,04,005,13,02,07,219,15,03,49,056,30,06,35,253,28*72
$GPGSV,3,2,11,07,48,326,32,09,56,224,26,16,23,101,15,22,20,049,26*76
$GPGSV,3,3,11,23,56,143,39,30,11,323,24,26,13,129,*4C
$BDGSV,1,1,02,214,55,213,31,211,,,*5D
$GPGGA,213025.0,3437.878577,S,05822.340242,W,1,07,0.9,14.2,M,22.0,M,,*62
$GPVTG,196.7,T,202.2,M,1.4,N,2.6,K,A*29
$GPGSA,A,2,03,06,07,09,22,23,30,,,,,,1.2,0.9,0.8*38
$GNGSA,A,2,03,06,07,09,22,23,30,,,,,,1.2,0.9,0.8*26
$GNGSA,A,2,71,72,73,74,,,,,,,,,1.2,0.9,0.8*2B
$BDGSA,A,2,,,,,,,,,,,,,1.2,0.9,0.8*20
$GPRMC,213025.0,A,3437.878577,S,05822.340242,W,1.4,196.7,020517,5.5,W,A*1D
$GLGSV,2,1,08,74,29,352,20,70,39,091,16,86,09,289,21,73,68,081,27*63
$GLGSV,2,2,08,87,12,236,17,71,55,175,34,72,17,224,18,80,30,144,*66
$GPGSV,3,1,11,01,04,005,13,02,07,219,15,03,49,056,25,06,35,253,28*76
$GPGSV,3,2,11,07,48,326,30,09,56,224,26,16,23,101,15,22,20,049,26*74
$GPGSV,3,3,11,23,56,143,38,30,11,323,27,26,13,129,*4E
$BDGSV,1,1,02,214,55,213,28,211,,,*55
$GPGGA,213026.0,3437.879090,S,05822.341032,W,1,07,0.8,13.4,M,22.0,M,,*68
$GPVTG,229.8,T,235.3,M,1.9,N,3.6,K,A*28
$GPGSA,A,2,03,06,07,09,22,23,30,,,,,,1.2,0.8,0.8*39
$GNGSA,A,2,03,06,07,09,22,23,30,,,,,,1.2,0.8,0.8*27
$GNGSA,A,2,71,72,73,74,86,,,,,,,,1.2,0.8,0.8*24
$BDGSA,A,2,,,,,,,,,,,,,1.2,0.8,0.8*21
$GPRMC,213026.0,A,3437.879090,S,05822.341032,W,1.9,229.8,020517,5.5,W,A*12
$GLGSV,2,1,08,74,29,352,20,70,39,091,16,86,09,289,21,73,68,081,28*6C
$GLGSV,2,2,08,87,12,236,17,71,55,175,36,72,17,224,18,80,30,144,*64
$GPGSV,3,1,11,01,04,005,14,02,07,219,15,03,49,056,24,06,35,253,23*7B
$GPGSV,3,2,11,07,48,326,28,09,56,224,26,16,23,101,15,23,56,143,40*76
$GPGSV,3,3,11,30,11,323,23,22,20,049,,26,13,129,*4A
$BDGSV,1,1,02,214,55,213,28,211,,,*55
$GPGGA,213027.0,3437.880308,S,05822.341555,W,1,07,0.8,13.5,M,22.0,M,,*68
$GPVTG,214.0,T,219.5,M,3.2,N,5.8,K,A*27
$GPGSA,A,2,03,06,07,09,22,23,30,,,,,,1.2,0.8,0.8*39
$GNGSA,A,2,03,06,07,09,22,23,30,,,,,,1.2,0.8,0.8*27
$GNGSA,A,2,71,72,73,74,86,,,,,,,,1.2,0.8,0.8*24
$BDGSA,A,2,,,,,,,,,,,,,1.2,0.8,0.8*21
$GPRMC,213027.0,A,3437.880308,S,05822.341555,W,3.2,214.0,020517,5.5,W,A*1C
$GLGSV,2,1,08,74,29,352,17,70,39,091,16,86,09,289,21,73,68,081,26*66
$GLGSV,2,2,08,87,12,236,15,71,55,175,35,72,17,224,18,80,30,144,*65
$GPGSV,3,1,11,01,04,005,14,02,07,219,15,03,49,056,24,06,35,253,24*7C
$GPGSV,3,2,11,07,48,326,26,09,56,224,29,16,23,101,15,23,56,143,40*77
$GPGSV,3,3,11,30,11,323,22,22,20,049,,26,13,129,*4B
$BDGSV,1,1,02,214,55,213,29,211,,,*54
$GPGGA,213028.0,3437.881184,S,05822.341979,W,1,07,0.8,13.2,M,22.0,M,,*65
$GPVTG,205.4,T,210.9,M,2.7,N,5.0,K,A*2A
$GPGSA,A,2,03,06,07,09,22,23,30,,,,,,1.2,0.8,0.8*39
$GNGSA,A,2,03,06,07,09,22,23,30,,,,,,1.2,0.8,0.8*27
$GNGSA,A,2,71,72,73,74,86,,,,,,,,1.2,0.8,0.8*24
$BDGSA,A,2,,,,,,,,,,,,,1.2,0.8,0.8*21
$GPRMC,213028.0,A,3437.881184,S,05822.341979,W,2.7,205.4,020517,5.5,W,A*16
$GLGSV,2,1,08,74,29,352,17,70,39,091,16,86,09,289,21,73,68,081,28*68
$GLGSV,2,2,08,87,12,236,15,71,55,175,34,72,17,224,14,80,30,144,*68
$GPGSV,3,1,11,01,04,005,14,02,07,219,15,03,49,056,26,06,35,253,21*7B
$GPGSV,3,2,11,07,48,326,28,09,56,224,22,16,23,101,15,23,56,143,38*7D
$GPGSV,3,3,11,30,11,323,25,22,20,049,,26,13,129,*4C
$BDGSV,1,1,02,214,55,213,25,211,,,*58
$GPGGA,213029.0,3437.881953,S,05822.342232,W,1,07,0.9,13.0,M,22.0,M,,*62
$GPVTG,204.1,T,209.6,M,1.9,N,3.4,K,A*26
$GPGSA,A,2,03,06,07,09,22,23,30,,,,,,1.3,0.9,0.9*38
$GNGSA,A,2,03,06,07,09,22,23,30,,,,,,1.3,0.9,0.9*26
$GNGSA,A,2,71,73,74,86,,,,,,,,,1.3,0.9,0.9*20
$BDGSA,A,2,,,,,,,,,,,,,1.3,0.9,0.9*20
$GPRMC,213029.0,A,3437.881953,S,05822.342232,W,1.9,204.1,020517,5.5,W,A*1B
$GLGSV,2,1,08,74,29,352,18,70,39,091,16,86,09,289,21,73,68,081,28*67
$GLGSV,2,2,08,87,12,236,15,71,55,175,34,72,17,224,14,80,30,144,*68
$GPGSV,3,1,11,01,04,005,14,02,07,219,15,03,49,056,26,06,35,253,21*7B
$GPGSV,3,2,11,07,48,326,25,09,56,224,25,16,23,101,15,22,20,049,26*73
$GPGSV,3,3,11,23,56,143,38,30,11,323,25,26,13,129,*4C
$BDGSV,1,1,02,214,55,213,24,211,,,*59
$GPGGA,213030.0,3437.882170,S,05822.342154,W,1,07,0.9,12.3,M,22.0,M,,*61
$GPVTG,198.6,T,204.1,M,1.6,N,3.0,K,A*26
$GPGSA,A,2,03,06,07,09,22,23,30,,,,,,1.3,0.9,0.9*38
$GNGSA,A,2,03,06,07,09,22,23,30,,,,,,1.3,0.9,0.9*26
$GNGSA,A,2,71,73,74,86,,,,,,,,,1.3,0.9,0.9*20
$BDGSA,A,2,,,,,,,,,,,,,1.3,0.9,0.9*20
$GPRMC,213030.0,A,3437.882170,S,05822.342154,W,1.6,198.6,020517,5.5,W,A*14
$GLGSV,2,1,08,74,29,352,18,70,39,091,8,86,09,289,15,73,68,081,27*50
$GLGSV,2,2,08,87,12,236,15,71,55,175,35,72,17,224,17,80,30,144,*6A
$GPGSV,3,1,11,01,04,005,14,02,07,219,16,03,49,056,28,06,35,253,23*74
$GPGSV,3,2,11,07,48,326,25,09,56,224,26,16,23,101,15,22,20,049,28*7E
$GPGSV,3,3,11,23,56,143,38,30,11,323,22,26,13,129,*4B
$BDGSV,1,1,02,214,55,213,25,211,,,*58
$GPGGA,213031.0,3437.882984,S,05822.342773,W,1,07,0.9,12.7,M,22.0,M,,*64
$GPVTG,209.2,T,214.7,M,1.9,N,3.6,K,A*27
$GPGSA,A,2,03,06,07,09,22,23,30,,,,,,1.3,0.9,0.9*38
$GNGSA,A,2,03,06,07,09,22,23,30,,,,,,1.3,0.9,0.9*26
$GNGSA,A,2,71,73,74,86,,,,,,,,,1.3,0.9,0.9*20
$BDGSA,A,2,,,,,,,,,,,,,1.3,0.9,0.9*20
$GPRMC,213031.0,A,3437.882984,S,05822.342773,W,1.9,209.2,020517,5.5,W,A*15
$GLGSV,2,1,08,74,29,352,19,70,39,091,8,86,09,289,15,73,68,081,30*57
$GLGSV,2,2,08,87,12,236,13,71,55,175,36,72,17,224,17,80,30,144,*6F
$GPGSV,3,1,11,01,04,005,16,02,07,219,16,03,49,056,30,06,35,253,22*7E
$GPGSV,3,2,11,07,48,326,26,09,56,224,30,16,23,101,11,22,20,049,26*70
$GPGSV,3,3,11,23,56,143,38,30,11,323,18,26,13,129,*42
$BDGSV,1,1,02,214,55,213,30,211,,,*5C
$GPGGA,213032.0,3437.884106,S,05822.345231,W,1,07,1.0,12.4,M,22.0,M,,*6C
$GPVTG,228.8,T,234.3,M,3.1,N,5.8,K,A*2A
$GPGSA,A,2,03,06,07,09,22,23,30,,,,,,1.3,1.0,0.9*30
$GNGSA,A,2,03,06,07,09,22,23,30,,,,,,1.3,1.0,0.9*2E
$GNGSA,A,2,71,73,86,,,,,,,,,,1.3,1.0,0.9*2B
$BDGSA,A,2,,,,,,,,,,,,,1.3,1.0,0.9*28
$GPRMC,213032.0,A,3437.884106,S,05822.345231,W,3.1,228.8,020517,5.5,W,A*15
$GLGSV,2,1,08,74,29,352,19,70,39,091,8,86,09,289,15,73,68,081,26*50
$GLGSV,2,2,08,87,12,236,17,71,55,175,34,72,17,224,17,80,30,144,*69
$GPGSV,3,1,11,01,04,005,22,02,07,219,16,03,49,056,25,06,35,253,26*79
$GPGSV,3,2,11,07,48,326,26,09,56,224,31,16,23,101,11,22,20,049,25*72
$GPGSV,3,3,11,23,56,143,37,30,11,323,20,26,13,129,*46
$BDGSV,1,1,02,214,55,213,33,211,,,*5F
$GPGGA,213033.0,3437.884809,S,05822.346668,W,1,07,1.1,12.5,M,22.0,M,,*60
$GPVTG,221.3,T,226.8,M,2.7,N,5.0,K,A*2F
$GPGSA,A,2,03,06,07,09,22,23,30,,,,,,1.4,1.1,0.9*36
$GNGSA,A,2,03,06,07,09,22,23,30,,,,,,1.4,1.1,0.9*28
$GNGSA,A,2,71,73,,,,,,,,,,,1.4,1.1,0.9*23
$BDGSA,A,2,,,,,,,,,,,,,1.4,1.1,0.9*2E
$GPRMC,213033.0,A,3437.884809,S,05822.346668,W,2.7,221.3,020517,5.5,W,A*1C
$GLGSV,2,1,08,74,29,352,19,70,39,091,8,86,09,289,15,73,68,081,20*56
$GLGSV,2,2,08,87,12,236,17,71,55,175,36,72,17,224,16,80,30,144,*6A
$GPGSV,3,1,11,01,04,005,20,02,07,219,16,03,49,056,25,06,35,253,25*78
$GPGSV,3,2,11,07,48,326,26,09,56,224,31,16,23,101,11,22,20,049,22*75
$GPGSV,3,3,11,23,56,143,37,30,11,323,21,26,13,129,*47
$BDGSV,1,1,02,214,55,213,31,211,,,*5D
$GPGGA,213034.0,3437.886137,S,05822.348737,W,1,07,1.1,12.8,M,22.0,M,,*69
$GPVTG,224.0,T,229.5,M,3.4,N,6.2,K,A*28
$GPGSA,A,2,03,06,07,09,22,23,30,,,,,,1.4,1.1,0.9*36
$GNGSA,A,2,03,06,07,09,22,23,30,,,,,,1.4,1.1,0.9*28
$GNGSA,A,2,71,73,,,,,,,,,,,1.4,1.1,0.9*23
$BDGSA,A,2,,,,,,,,,,,,,1.4,1.1,0.9*2E
$GPRMC,213034.0,A,3437.886137,S,05822.348737,W,3.4,224.0,020517,5.5,W,A*1C
$GLGSV,2,1,08,74,29,352,14,70,39,091,8,86,09,289,15,73,68,081,26*5D
$GLGSV,2,2,08,87,12,236,17,71,55,175,36,72,17,224,16,80,30,144,*6A
$GPGSV,3,1,11,01,04,005,20,02,07,219,16,03,49,056,21,06,35,253,31*79
$GPGSV,3,2,11,07,48,326,24,09,56,224,35,16,23,101,11,22,20,049,22*73
$GPGSV,3,3,11,23,56,143,34,30,11,323,17,26,13,129,*41
$BDGSV,1,1,02,214,55,213,33,211,,,*5F
$GPGGA,213035.0,3437.885932,S,05822.353113,W,1,07,1.1,9.1,M,22.0,M,,*5F
$GPVTG,239.9,T,245.4,M,3.6,N,6.6,K,A*20
$GPGSA,A,2,03,06,07,09,22,23,30,,,,,,1.4,1.1,0.9*36
$GNGSA,A,2,03,06,07,09,22,23,30,,,,,,1.4,1.1,0.9*28
$GNGSA,A,2,71,73,,,,,,,,,,,1.4,1.1,0.9*23
$BDGSA,A,2,,,,,,,,,,,,,1.4,1.1,0.9*2E
$GPRMC,213035.0,A,3437.885932,S,05822.353113,W,3.6,239.9,020517,5.5,W,A*1E
$GLGSV,2,1,08,74,29,352,14,70,39,091,8,86,09,289,15,73,68,081,21*5A
$GLGSV,2,2,08,87,12,236,17,71,55,175,37,72,17,224,16,80,30,144,*6B
$GPGSV,3,1,11,01,04,005,18,02,07,219,16,03,49,056,23,06,35,253,29*79
$GPGSV,3,2,11,07,48,326,23,09,56,224,35,16,23,101,11,22,20,049,23*75
$GPGSV,3,3,11,23,56,143,35,30,11,323,17,26,13,129,*40
$BDGSV,1,1,02,214,55,213,35,211,,,*59
$GPGGA,213036.0,3437.886820,S,05822.355372,W,1,07,1.1,7.7,M,22.0,M,,*56
$GPVTG,235.0,T,240.5,M,4.1,N,7.5,K,A*23
$GPGSA,A,2,03,06,07,09,22,23,30,,,,,,1.4,1.1,0.9*36
$GNGSA,A,2,03,06,07,09,22,23,30,,,,,,1.4,1.1,0.9*28
$GNGSA,A,2,71,73,,,,,,,,,,,1.4,1.1,0.9*23
$BDGSA,A,2,,,,,,,,,,,,,1.4,1.1,0.9*2E
$GPRMC,213036.0,A,3437.886820,S,05822.355372,W,4.1,235.0,020517,5.5,W,A*1A
$GLGSV,2,1,08,74,29,352,14,70,39,091,8,86,09,289,15,73,68,081,21*5A
$GLGSV,2,2,08,87,12,236,17,71,55,175,38,72,17,224,15,80,30,144,*67
$GPGSV,3,1,11,01,04,005,18,02,07,219,16,03,49,056,22,06,35,253,28*79
$GPGSV,3,2,11,07,48,326,25,09,56,224,38,16,23,101,11,23,56,143,34*73
$GPGSV,3,3,11,30,11,323,18,22,20,049,,26,13,129,*42
$BDGSV,1,1,02,214,55,213,36,211,,,*5A
$GPGGA,213037.0,3437.886901,S,05822.356705,W,1,07,1.1,7.2,M,22.0,M,,*57
$GPVTG,240.2,T,245.7,M,3.4,N,6.3,K,A*21
$GPGSA,A,2,03,06,07,09,22,23,30,,,,,,1.4,1.1,0.9*36
$GNGSA,A,2,03,06,07,09,22,23,30,,,,,,1.4,1.1,0.9*28
$GNGSA,A,2,71,73,,,,,,,,,,,1.4,1.1,0.9*23
$BDGSA,A,2,,,,,,,,,,,,,1.4,1.1,0.9*2E
$GPRMC,213037.0,A,3437.886901,S,05822.356705,W,3.4,240.2,020517,5.5,W,A*1C
$GLGSV,2,1,08,74,29,352,14,70,39,091,8,86,09,289,15,73,68,081,18*50
$GLGSV,2,2,08,87,12,236,17,71,55,175,35,72,17,224,15,80,30,144,*6A
$GPGSV,3,1,11,01,04,005,18,02,07,219,16,03,49,056,21,06,35,253,27*75
$GPGSV,3,2,11,07,48,326,24,09,56,224,39,16,23,101,13,22,20,049,23*7C
$GPGSV,3,3,11,23,56,143,28,30,11,323,18,26,13,129,*43
$BDGSV,1,1,02,214,55,213,35,211,,,*59
$GPGGA,213038.0,3437.888292,S,05822.357912,W,1,07,1.1,7.0,M,22.0,M,,*5C
$GPVTG,231.5,T,237.0,M,3.3,N,6.0,K,A*26
$GPGSA,A,2,03,06,07,09,22,23,30,,,,,,1.4,1.1,0.9*36
$GNGSA,A,2,03,06,07,09,22,23,30,,,,,,1.4,1.1,0.9*28
$GNGSA,A,2,71,73,,,,,,,,,,,1.4,1.1,0.9*23
$BDGSA,A,2,,,,,,,,,,,,,1.4,1.1,0.9*2E
$GPRMC,213038.0,A,3437.888292,S,05822.357912,W,3.3,231.5,020517,5.5,W,A*13
$GLGSV,2,1,08,74,29,352,14,70,39,091,8,86,09,289,15,73,68,081,18*50
$GLGSV,2,2,08,87,12,236,17,71,55,175,29,72,17,224,15,80,30,144,*67
$GPGSV,3,1,11,01,04,005,18,02,07,219,16,03,49,056,21,06,35,253,22*70
$GPGSV,3,2,11,07,48,326,25,09,56,224,34,16,23,101,17,22,20,049,29*7E
$GPGSV,3,3,11,23,56,143,24,30,11,323,27,26,13,129,*43
$BDGSV,1,1,02,214,55,213,32,211,,,*5E
$GPGGA,213039.0,3437.886402,S,05822.359714,W,1,08,1.0,9.6,M,22.0,M,,*5C
$GPVTG,305.2,T,310.7,M,2.3,N,4.3,K,A*24
$GPGSA,A,2,03,06,07,09,16,22,23,30,,,,,1.3,1.0,0.9*37
$GNGSA,A,2,03,06,07,09,16,22,23,30,,,,,1.3,1.0,0.9*29
$GNGSA,A,2,71,73,,,,,,,,,,,1.3,1.0,0.9*25
$BDGSA,A,2,,,,,,,,,,,,,1.3,1.0,0.9*28
$GPRMC,213039.0,A,3437.886402,S,05822.359714,W,2.3,305.2,020517,5.5,W,A*15
$GLGSV,2,1,08,74,29,352,13,70,39,091,8,86,09,289,12,73,68,081,17*5F
$GLGSV,2,2,08,80,30,144,12,87,12,236,17,71,55,175,28,72,17,224,15*65
$GPGSV,3,1,11,01,04,005,16,02,07,219,16,03,49,056,25,06,35,253,18*73
$GPGSV,3,2,11,07,48,326,26,09,56,224,34,16,23,101,19,22,20,049,22*78
$GPGSV,3,3,11,23,56,143,23,30,11,323,21,26,13,129,*42
$BDGSV,1,1,02,214,55,213,32,211,,,*5E
$GPGGA,213040.0,3437.886198,S,05822.360897,W,1,08,0.8,11.3,M,22.0,M,,*6F
$GPVTG,301.2,T,306.7,M,2.6,N,4.9,K,A*28
$GPGSA,A,2,03,06,07,09,16,22,23,30,,,,,1.2,0.8,0.8*3E
$GNGSA,A,2,03,06,07,09,16,22,23,30,,,,,1.2,0.8,0.8*20
$GNGSA,A,2,71,73,74,86,,,,,,,,,1.2,0.8,0.8*21
$BDGSA,A,2,,,,,,,,,,,,,1.2,0.8,0.8*21
$GPRMC,213040.0,A,3437.886198,S,05822.360897,W,2.6,301.2,020517,5.5,W,A*12
$GLGSV,2,1,08,74,29,352,13,70,39,091,8,86,09,289,12,73,68,081,18*50
$GLGSV,2,2,08,87,12,236,17,71,55,175,27,72,17,224,14,80,30,144,*68
$GPGSV,3,1,11,01,04,005,16,02,07,219,16,03,49,056,24,06,35,253,19*73
$GPGSV,3,2,11,07,48,326,27,09,56,224,32,16,23,101,19,22,20,049,23*7E
$GPGSV,3,3,11,23,56,143,27,30,11,323,18,26,13,129,*4C
$BDGSV,1,1,02,214,55,213,29,211,,,*54
$GPGGA,213041.0,3437.886227,S,05822.362202,W,1,08,0.8,10.9,M,22.0,M,,*66
$GPVTG,301.8,T,307.3,M,2.7,N,5.0,K,A*2E
$GPGSA,A,2,03,06,07,09,16,22,23,30,,,,,1.1,0.8,0.8*3D
$GNGSA,A,2,03,06,07,09,16,22,23,30,,,,,1.1,0.8,0.8*23
$GNGSA,A,2,71,72,73,74,86,,,,,,,,1.1,0.8,0.8*27
$BDGSA,A,2,,,,,,,,,,,,,1.1,0.8,0.8*22
$GPRMC,213041.0,A,3437.886227,S,05822.362202,W,2.7,301.8,020517,5.5,W,A*1B
$GLGSV,2,1,08,74,29,352,13,70,39,091,8,86,09,289,12,73,68,081,17*5F
$GLGSV,2,2,08,87,12,236,10,71,55,175,27,72,17,224,14,80,30,144,*6F
$GPGSV,3,1,11,01,04,005,16,02,07,219,16,03,49,056,20,06,35,253,18*76
$GPGSV,3,2,11,07,48,326,27,09,56,224,30,16,23,101,16,22,20,049,20*70
$GPGSV,3,3,11,23,56,143,28,30,11,323,24,26,13,129,*4C
$BDGSV,1,1,02,214,55,213,25,211,,,*58
$GPGGA,213042.0,3437.885640,S,05822.363641,W,1,08,0.7,12.8,M,22.0,M,,*6D
$GPVTG,271.9,T,277.4,M,2.5,N,4.7,K,A*2C
$GPGSA,A,2,03,06,07,09,16,22,23,30,,,,,1.1,0.7,0.8*32
$GNGSA,A,2,03,06,07,09,16,22,23,30,,,,,1.1,0.7,0.8*2C
$GNGSA,A,2,71,72,73,74,86,87,,,,,,,1.1,0.7,0.8*27
$BDGSA,A,2,,,,,,,,,,,,,1.1,0.7,0.8*2D
$GPRMC,213042.0,A,3437.885640,S,05822.363641,W,2.5,271.9,020517,5.5,W,A*19
$GLGSV,2,1,08,74,29,352,17,70,39,091,10,86,09,289,12,73,68,081,18*6D
$GLGSV,2,2,08,87,12,236,10,71,55,175,25,72,17,224,14,80,30,144,*6D
$GPGSV,3,1,11,01,04,005,16,02,07,219,16,03,49,056,25,06,35,253,18*73
$GPGSV,3,2,11,07,48,326,29,09,56,224,33,16,23,101,22,22,20,049,28*72
$GPGSV,3,3,11,23,56,143,32,30,11,323,23,26,13,129,*40
$BDGSV,1,1,02,214,55,213,31,211,,,*5D
$GPGGA,213043.0,3437.885111,S,05822.364510,W,1,08,0.7,14.1,M,22.0,M,,*60
$GPVTG,290.5,T,296.0,M,1.6,N,3.0,K,A*24
$GPGSA,A,2,03,06,07,09,16,22,23,30,,,,,1.0,0.7,0.8*33
$GNGSA,A,2,03,06,07,09,16,22,23,30,,,,,1.0,0.7,0.8*2D
$GNGSA,A,2,70,71,72,73,74,86,87,,,,,,1.0,0.7,0.8*21
$BDGSA,A,2,,,,,,,,,,,,,1.0,0.7,0.8*2C
$GPRMC,213043.0,A,3437.885111,S,05822.364510,W,1.6,290.5,020517,5.5,W,A*18
$GLGSV,2,1,08,74,29,352,17,70,39,091,17,86,09,289,12,73,68,081,19*6B
$GLGSV,2,2,08,87,12,236,10,71,55,175,30,72,17,224,14,80,30,144,*69
$GPGSV,3,1,11,01,04,005,16,02,07,219,16,03,49,056,24,06,35,253,18*72
$GPGSV,3,2,11,07,48,326,27,09,56,224,38,16,23,101,20,22,20,049,26*7B
$GPGSV,3,3,11,23,56,143,28,30,11,323,21,26,13,129,*49
$BDGSV,1,1,02,214,55,213,34,211,,,*58
$GPGGA,213044.0,3437.884490,S,05822.365232,W,1,08,0.7,14.6,M,22.0,M,,*6B
$GPVTG,322.8,T,328.3,M,1.8,N,3.4,K,A*2C
$GPGSA,A,2,03,06,07,09,16,22,23,30,,,,,1.0,0.7,0.8*33
$GNGSA,A,2,03,06,07,09,16,22,23,30,,,,,1.0,0.7,0.8*2D
$GNGSA,A,2,70,71,72,73,74,86,87,,,,,,1.0,0.7,0.8*21
$BDGSA,A,2,,,,,,,,,,,,,1.0,0.7,0.8*2C
$GPRMC,213044.0,A,3437.884490,S,05822.365232,W,1.8,322.8,020517,5.5,W,A*1F
$GLGSV,2,1,08,74,29,352,17,70,39,091,17,86,09,289,16,73,68,081,18*6E
$GLGSV,2,2,08,87,12,236,10,71,55,175,28,72,17,224,14,80,30,144,*60
$GPGSV,3,1,11,01,04,005,16,02,07,219,16,03,49,056,22,06,35,253,17*7B
$GPGSV,3,2,11,07,48,326,28,09,56,224,32,16,23,101,21,22,20,049,26*7F
$GPGSV,3,3,11,23,56,143,27,30,11,323,22,26,13,129,*45
$BDGSV,1,1,02,214,55,213,32,211,,,*5E
$GPGGA,213045.0,3437.883561,S,05822.366432,W,1,08,0.7,15.1,M,22.0,M,,*61
$GPVTG,314.2,T,319.7,M,1.1,N,2.0,K,A*29
$GPGSA,A,2,03,06,07,09,16,22,23,30,,,,,1.0,0.7,0.8*33
$GNGSA,A,2,03,06,07,09,16,22,23,30,,,,,1.0,0.7,0.8*2D
$GNGSA,A,2,70,71,72,73,74,86,87,,,,,,1.0,0.7,0.8*21
$BDGSA,A,2,,,,,,,,,,,,,1.0,0.7,0.8*2C
$GPRMC,213045.0,A,3437.883561,S,05822.366432,W,1.1,314.2,020517,5.5,W,A*15
$GLGSV,2,1,08,74,29,352,17,70,39,091,17,86,09,289,16,73,68,081,22*67
$GLGSV,2,2,08,87,12,236,10,71,55,175,35,72,17,224,14,80,30,144,*6C
$GPGSV,3,1,12,01,04,005,16,02,07,219,16,03,49,056,23,06,35,253,18*76
$GPGSV,3,2,12,07,48,326,23,09,56,224,34,16,23,101,24,22,20,049,26*74
$GPGSV,3,3,12,23,56,143,26,30,11,323,21,51,,,31,26,13,129,*42
$BDGSV,1,1,02,214,55,213,37,211,,,*5B
$GPGGA,213046.0,3437.883711,S,05822.367303,W,1,08,0.7,14.8,M,22.0,M,,*6B
$GPVTG,96.0,T,101.5,M,0.0,N,0.0,K,A*19
$GPGSA,A,2,03,06,07,09,16,22,23,30,,,,,1.0,0.7,0.8*33
$GNGSA,A,2,03,06,07,09,16,22,23,30,,,,,1.0,0.7,0.8*2D
$GNGSA,A,2,70,71,72,73,74,86,87,,,,,,1.0,0.7,0.8*21
$BDGSA,A,2,,,,,,,,,,,,,1.0,0.7,0.8*2C
$GPRMC,213046.0,A,3437.883711,S,05822.367303,W,0.0,96.0,020517,5.5,W,A*2C
$GLGSV,2,1,08,74,29,352,16,70,39,091,17,86,09,289,18,73,68,081,23*69
$GLGSV,2,2,08,87,12,236,10,71,55,175,33,72,17,224,14,80,30,144,*6A
$GPGSV,3,1,12,01,04,005,16,02,07,219,16,03,49,056,22,06,35,253,19*76
$GPGSV,3,2,12,07,48,326,27,09,56,224,28,16,23,101,21,22,20,049,25*7B
$GPGSV,3,3,12,23,56,143,30,30,11,323,27,51,,,31,26,13,129,*43
$BDGSV,1,1,02,214,55,213,36,211,,,*5A
$GPGGA,213047.0,3437.883523,S,05822.368698,W,1,08,0.7,11.5,M,22.0,M,,*69
$GPVTG,316.6,T,322.0,M,0.7,N,1.4,K,A*20
$GPGSA,A,2,03,06,07,09,16,22,23,30,,,,,1.1,0.7,0.8*32
$GNGSA,A,2,03,06,07,09,16,22,23,30,,,,,1.1,0.7,0.8*2C
$GNGSA,A,2,70,71,73,74,86,87,,,,,,,1.1,0.7,0.8*25
$BDGSA,A,2,,,,,,,,,,,,,1.1,0.7,0.8*2D
$GPRMC,213047.0,A,3437.883523,S,05822.368698,W,0.7,316.6,020517,5.5,W,A*1C
$GLGSV,2,1,08,74,29,352,16,70,39,091,17,86,09,289,18,73,68,081,20*6A
$GLGSV,2,2,08,87,12,236,10,71,55,175,32,72,17,224,13,80,30,144,*6C
$GPGSV,3,1,12,01,04,005,13,02,07,219,16,03,49,056,27,06,35,253,25*79
$GPGSV,3,2,12,07,48,326,25,09,56,224,25,16,23,101,23,22,20,049,24*77
$GPGSV,3,3,12,23,56,143,27,30,11,323,22,51,,,34,26,13,129,*45
$BDGSV,1,1,02,214,55,213,25,211,,,*58
$GPGGA,213048.0,3437.883334,S,05822.370006,W,1,08,0.7,10.8,M,22.0,M,,*62
$GPVTG,339.2,T,344.7,M,1.8,N,3.4,K,A*22
$GPGSA,A,2,03,06,07,09,16,22,23,30,,,,,1.1,0.7,0.8*32
$GNGSA,A,2,03,06,07,09,16,22,23,30,,,,,1.1,0.7,0.8*2C
$GNGSA,A,2,70,71,72,73,74,86,,,,,,,1.1,0.7,0.8*2F
$BDGSA,A,2,,,,,,,,,,,,,1.1,0.7,0.8*2D
$GPRMC,213048.0,A,3437.883334,S,05822.370006,W,1.8,339.2,020517,5.5,W,A*1C
$GLGSV,2,1,08,74,29,352,16,70,39,091,17,86,09,289,18,73,68,081,17*6E
$GLGSV,2,2,08,80,30,144,13,87,12,236,10,71,55,175,31,72,17,224,13*6D
$GPGSV,3,1,12,01,04,005,13,02,07,219,16,03,49,056,26,06,35,253,26*7B
$GPGSV,3,2,12,07,48,326,28,09,56,224,28,16,23,101,23,22,20,049,25*76
$GPGSV,3,3,12,23,56,143,28,30,11,323,23,51,,,30,26,13,129,*4F
$BDGSV,1,1,02,214,55,213,21,211,,,*5C
$GPGGA,213049.0,3437.882813,S,05822.373311,W,1,08,0.8,7.2,M,22.0,M,,*59
$GPVTG,309.7,T,315.2,M,4.0,N,7.4,K,A*2C
$GPGSA,A,2,03,06,07,09,16,22,23,30,,,,,1.1,0.8,0.8*3D
$GNGSA,A,2,03,06,07,09,16,22,23,30,,,,,1.1,0.8,0.8*23
$GNGSA,A,2,71,72,73,74,86,,,,,,,,1.1,0.8,0.8*27
$BDGSA,A,2,,,,,,,,,,,,,1.1,0.8,0.8*22
$GPRMC,213049.0,A,3437.882813,S,05822.373311,W,4.0,309.7,020517,5.5,W,A*1F
$GLGSV,2,1,08,74,29,352,19,70,39,091,12,86,09,289,18,73,68,081,20*60
$GLGSV,2,2,08,80,30,144,13,87,12,236,10,71,55,175,36,72,17,224,13*6A
$GPGSV,3,1,12,01,04,005,13,02,07,219,16,03,49,056,28,06,35,253,18*78
$GPGSV,3,2,12,07,48,326,26,09,56,224,27,16,23,101,22,22,20,049,30*72
$GPGSV,3,3,12,23,56,143,30,30,11,323,21,51,,,30,26,13,129,*44
$BDGSV,1,1,02,214,55,213,25,211,,,*58
$GPGGA,213050.0,3437.882845,S,05822.374848,W,1,08,0.8,7.2,M,22.0,M,,*52
$GPVTG,298.0,T,303.5,M,3.1,N,5.8,K,A*2A
$GPGSA,A,2,03,06,07,09,16,22,23,30,,,,,1.1,0.8,0.8*3D
$GNGSA,A,2,03,06,07,09,16,22,23,30,,,,,1.1,0.8,0.8*23
$GNGSA,A,2,71,72,73,74,86,,,,,,,,1.1,0.8,0.8*27
$BDGSA,A,2,,,,,,,,,,,,,1.1,0.8,0.8*22
$GPRMC,213050.0,A,3437.882845,S,05822.374848,W,3.1,298.0,020517,5.5,W,A*1C
$GLGSV,2,1,08,74,29,352,21,70,39,091,12,86,09,289,16,73,68,081,20*65
$GLGSV,2,2,08,80,30,144,14,87,12,236,10,71,55,175,34,72,17,224,13*6F
$GPGSV,3,1,12,01,04,005,13,02,07,219,16,03,49,056,29,06,35,253,17*76
$GPGSV,3,2,12,07,48,326,28,09,56,224,23,16,23,101,21,22,20,049,26*7C
$GPGSV,3,3,12,23,56,143,30,30,11,323,20,51,,,32,26,13,129,*47
$BDGSV,1,1,02,214,55,213,24,211,,,*59
$GPGGA,213051.0,3437.882014,S,05822.375489,W,1,08,0.8,8.7,M,22.0,M,,*55
$GPVTG,288.5,T,294.0,M,1.5,N,2.8,K,A*25
$GPGSA,A,2,03,06,07,09,16,22,23,30,,,,,1.1,0.8,0.8*3D
$GNGSA,A,2,03,06,07,09,16,22,23,30,,,,,1.1,0.8,0.8*23
$GNGSA,A,2,71,72,73,74,86,,,,,,,,1.1,0.8,0.8*27
$BDGSA,A,2,,,,,,,,,,,,,1.1,0.8,0.8*22
$GPRMC,213051.0,A,3437.882014,S,05822.375489,W,1.5,288.5,020517,5.5,W,A*13
$GLGSV,2,1,08,74,29,352,21,70,39,091,12,86,09,289,16,73,68,081,18*6E
$GLGSV,2,2,08,80,30,144,16,87,12,236,10,71,55,175,32,72,17,224,13*6B
$GPGSV,3,1,12,01,04,005,13,02,07,219,16,03,49,056,24,06,35,253,17*7B
$GPGSV,3,2,12,07,48,326,31,09,56,224,26,16,23,101,18,22,20,049,23*7E
$GPGSV,3,3,12,23,56,143,30,30,11,323,21,51,,,31,26,13,129,*45
$BDGSV,1,1,02,214,55,213,18,211,,,*56
$GPGGA,213052.0,3437.880934,S,05822.376409,W,1,08,0.8,11.4,M,22.0,M,,*6F
$GPVTG,305.7,T,311.2,M,1.8,N,3.3,K,A*2A
$GPGSA,A,2,03,06,07,09,16,22,23,30,,,,,1.1,0.8,0.8*3D
$GNGSA,A,2,03,06,07,09,16,22,23,30,,,,,1.1,0.8,0.8*23
$GNGSA,A,2,71,72,73,74,86,,,,,,,,1.1,0.8,0.8*27
$BDGSA,A,2,,,,,,,,,,,,,1.1,0.8,0.8*22
$GPRMC,213052.0,A,3437.880934,S,05822.376409,W,1.8,305.7,020517,5.5,W,A*19
$GLGSV,2,1,08,74,29,352,17,70,39,091,12,86,09,289,20,73,68,081,20*65
$GLGSV,2,2,08,80,30,144,16,87,12,236,10,71,55,175,28,72,17,224,13*60
$GPGSV,3,1,12,01,04,005,13,02,07,219,16,03,49,056,27,06,35,253,17*78
$GPGSV,3,2,12,07,48,326,32,09,56,224,30,16,23,101,22,22,20,049,25*75
$GPGSV,3,3,12,23,56,143,30,30,11,323,23,51,,,29,26,13,129,*4E
$BDGSV,1,1,02,214,55,213,22,211,,,*5F
$GPGGA,213053.0,3437.880288,S,05822.378278,W,1,08,0.8,9.6,M,22.0,M,,*57
$GPVTG,302.0,T,307.5,M,2.5,N,4.7,K,A*27
$GPGSA,A,2,03,06,07,09,16,22,23,30,,,,,1.1,0.8,0.8*3D
$GNGSA,A,2,03,06,07,09,16,22,23,30,,,,,1.1,0.8,0.8*23
$GNGSA,A,2,71,72,73,74,86,,,,,,,,1.1,0.8,0.8*27
$BDGSA,A,2,,,,,,,,,,,,,1.1,0.8,0.8*22
$GPRMC,213053.0,A,3437.880288,S,05822.378278,W,2.5,302.0,020517,5.5,W,A*14
$GLGSV,2,1,08,74,29,352,17,70,39,091,12,86,09,289,20,73,68,081,17*61
$GLGSV,2,2,08,80,30,144,16,71,55,175,25,72,17,224,13,87,12,236,*6C
$GPGSV,3,1,12,01,04,005,13,02,07,219,16,03,49,056,26,06,35,253,18*76
$GPGSV,3,2,12,07,48,326,34,09,56,224,34,16,23,101,21,22,20,049,23*72
$GPGSV,3,3,12,23,56,143,27,30,11,323,20,51,,,28,26,13,129,*4A
$BDGSV,1,1,02,214,55,213,26,211,,,*5B
$GPGGA,213054.0,3437.878685,S,05822.380719,W,1,08,0.8,10.1,M,22.0,M,,*64
$GPVTG,298.6,T,304.1,M,4.1,N,7.5,K,A*27
$GPGSA,A,2,03,06,07,09,16,22,23,30,,,,,1.2,0.8,0.8*3E
$GNGSA,A,2,03,06,07,09,16,22,23,30,,,,,1.2,0.8,0.8*20
$GNGSA,A,2,71,73,74,86,,,,,,,,,1.2,0.8,0.8*21
$BDGSA,A,2,,,,,,,,,,,,,1.2,0.8,0.8*21
$GPRMC,213054.0,A,3437.878685,S,05822.380719,W,4.1,298.6,020517,5.5,W,A*1E
$GLGSV,2,1,08,74,29,352,17,70,39,091,12,86,09,289,18,73,68,081,21*6F
$GLGSV,2,2,08,80,30,144,18,71,55,175,28,72,17,224,13,87,12,236,*6F
$GPGSV,3,1,12,01,04,005,13,02,07,219,16,03,49,056,25,06,35,253,18*75
$GPGSV,3,2,12,07,48,326,30,09,56,224,37,16,23,101,20,22,20,049,22*75
$GPGSV,3,3,12,23,56,143,28,30,11,323,23,51,,,28,26,13,129,*46
$BDGSV,1,1,02,214,55,213,31,211,,,*5D
$GPGGA,213055.0,3437.877751,S,05822.382364,W,1,08,0.8,10.9,M,22.0,M,,*66
$GPVTG,287.2,T,292.7,M,3.8,N,7.1,K,A*2F
$GPGSA,A,2,03,06,07,09,16,22,23,30,,,,,1.2,0.8,0.8*3E
$GNGSA,A,2,03,06,07,09,16,22,23,30,,,,,1.2,0.8,0.8*20
$GNGSA,A,2,71,73,74,86,,,,,,,,,1.2,0.8,0.8*21
$BDGSA,A,2,,,,,,,,,,,,,1.2,0.8,0.8*21
$GPRMC,213055.0,A,3437.877751,S,05822.382364,W,3.8,287.2,020517,5.5,W,A*10
$GLGSV,2,1,08,74,29,352,16,70,39,091,12,86,09,289,20,73,68,081,24*60
$GLGSV,2,2,08,80,30,144,20,71,55,175,31,72,17,224,13,87,12,236,*6C
$GPGSV,3,1,12,01,04,005,13,02,07,219,16,03,49,056,25,06,35,253,17*7A
$GPGSV,3,2,12,07,48,326,33,09,56,224,35,16,23,101,21,22,20,049,22*75
$GPGSV,3,3,12,23,56,143,25,30,11,323,23,51,,,32,26,13,129,*40
$BDGSV,1,1,02,214,55,213,33,211,,,*5F
$GPGGA,213056.0,3437.876611,S,05822.383021,W,1,08,0.8,12.3,M,22.0,M,,*6A
$GPVTG,284.8,T,290.3,M,3.5,N,6.4,K,A*29
$GPGSA,A,2,03,06,07,09,16,22,23,30,,,,,1.2,0.8,0.8*3E
$GNGSA,A,2,03,06,07,09,16,22,23,30,,,,,1.2,0.8,0.8*20
$GNGSA,A,2,71,73,74,86,,,,,,,,,1.2,0.8,0.8*21
$BDGSA,A,2,,,,,,,,,,,,,1.2,0.8,0.8*21
$GPRMC,213056.0,A,3437.876611,S,05822.383021,W,3.5,284.8,020517,5.5,W,A*10
$GLGSV,2,1,08,74,29,352,16,70,39,091,12,86,09,289,22,73,68,081,26*60
$GLGSV,2,2,08,80,30,144,20,71,55,175,34,72,17,224,13,87,12,236,*69
$GPGSV,3,1,12,01,04,005,13,02,07,219,16,03,49,056,22,06,35,253,17*7D
$GPGSV,3,2,12,07,48,326,29,09,56,224,37,16,23,101,23,22,20,049,21*7D
$GPGSV,3,3,12,23,56,143,31,30,11,323,19,51,,,30,26,13,129,*4E
$BDGSV,1,1,02,214,55,213,37,211,,,*5B
$GPGGA,213057.0,3437.876153,S,05822.382666,W,1,08,0.8,14.1,M,22.0,M,,*6A
$GPVTG,277.7,T,283.1,M,2.0,N,3.7,K,A*28
$GPGSA,A,2,03,06,07,09,16,22,23,30,,,,,1.2,0.8,0.8*3E
$GNGSA,A,2,03,06,07,09,16,22,23,30,,,,,1.2,0.8,0.8*20
$GNGSA,A,2,71,73,74,86,,,,,,,,,1.2,0.8,0.8*21
$BDGSA,A,2,,,,,,,,,,,,,1.2,0.8,0.8*21
$GPRMC,213057.0,A,3437.876153,S,05822.382666,W,2.0,277.7,020517,5.5,W,A*13
$GLGSV,2,1,08,74,29,352,16,70,39,091,13,86,09,289,22,73,68,081,27*60
$GLGSV,2,2,08,80,30,144,19,71,55,175,33,72,17,224,13,87,12,236,*64
$GPGSV,3,1,12,01,04,005,13,03,49,056,27,06,35,253,17,07,48,326,32*7D
$GPGSV,3,2,12,09,56,224,39,16,23,101,20,23,56,143,32,30,11,323,22*7F
$GPGSV,3,3,12,51,,,30,02,07,219,,22,20,049,,26,13,129,*41
$BDGSV,1,1,02,214,55,213,36,211,,,*5A
$GPGGA,213058.0,3437.876602,S,05822.384072,W,1,08,0.8,15.0,M,22.0,M,,*63
$GPVTG,237.6,T,243.1,M,3.2,N,6.0,K,A*20
$GPGSA,A,2,03,06,07,09,16,22,23,30,,,,,1.2,0.8,0.8*3E
$GNGSA,A,2,03,06,07,09,16,22,23,30,,,,,1.2,0.8,0.8*20
$GNGSA,A,2,71,73,74,86,,,,,,,,,1.2,0.8,0.8*21
$BDGSA,A,2,,,,,,,,,,,,,1.2,0.8,0.8*21
$GPRMC,213058.0,A,3437.876602,S,05822.384072,W,3.2,237.6,020517,5.5,W,A*1C
$GLGSV,2,1,08,74,29,352,16,70,39,091,16,86,09,289,22,73,68,081,24*66
$GLGSV,2,2,08,80,30,144,19,71,55,175,30,72,17,224,13,87,12,236,*67
$GPGSV,3,1,12,01,04,005,13,03,49,056,26,06,35,253,22,07,48,326,28*71
$GPGSV,3,2,12,09,56,224,30,16,23,101,22,22,20,049,24,23,56,143,30*7E
$GPGSV,3,3,12,30,11,323,20,51,,,30,02,07,219,,26,13,129,*4D
$BDGSV,1,1,02,214,55,213,35,211,,,*59
$GPGGA,213059.0,3437.877044,S,05822.386502,W,1,08,0.8,10.5,M,22.0,M,,*67
$GPVTG,227.3,T,232.8,M,3.2,N,5.9,K,A*21
$GPGSA,A,2,03,06,07,09,16,22,23,30,,,,,1.2,0.8,0.8*3E
$GNGSA,A,2,03,06,07,09,16,22,23,30,,,,,1.2,0.8,0.8*20
$GNGSA,A,2,70,71,73,74,86,,,,,,,,1.2,0.8,0.8*26
$BDGSA,A,2,,,,,,,,,,,,,1.2,0.8,0.8*21
$GPRMC,213059.0,A,3437.877044,S,05822.386502,W,3.2,227.3,020517,5.5,W,A*1C
$GLGSV,2,1,08,74,29,352,16,70,39,091,18,86,09,289,23,73,68,081,23*6E
$GLGSV,2,2,08,80,30,144,18,71,55,175,27,72,17,224,13,87,12,236,*60
$GPGSV,3,1,12,01,04,005,13,03,49,056,25,06,35,253,20,07,48,326,24*7C
$GPGSV,3,2,12,09,56,224,23,16,23,101,21,22,20,049,26,23,56,143,30*7D
$GPGSV,3,3,12,30,11,323,23,51,,,29,02,07,219,,26,13,129,*46
$BDGSV,1,1,02,214,55,213,29,211,,,*54
$GPGGA,213100.0,3437.877649,S,05822.388134,W,1,08,0.8,8.9,M,22.0,M,,*5B
$GPVTG,233.9,T,239.4,M,2.8,N,5.3,K,A*28
$GPGSA,A,2,03,06,07,09,16,22,23,30,,,,,1.2,0.8,0.8*3E
$GNGSA,A,2,03,06,07,09,16,22,23,30,,,,,1.2,0.8,0.8*20
$GNGSA,A,2,70,71,73,74,86,,,,,,,,1.2,0.8,0.8*26
$BDGSA,A,2,,,,,,,,,,,,,1.2,0.8,0.8*21
$GPRMC,213100.0,A,3437.877649,S,05822.388134,W,2.8,233.9,020517,5.5,W,A*11
$GLGSV,2,1,08,74,29,352,13,70,39,091,18,86,09,289,22,73,68,081,17*6D
$GLGSV,2,2,08,80,30,144,18,71,55,175,31,72,17,224,13,87,12,236,*67
$GPGSV,3,1,12,01,04,005,13,03,49,056,25,06,35,253,20,07,48,326,23*7B
$GPGSV,3,2,12,09,56,224,20,16,23,101,23,22,20,049,27,23,56,143,30*7D
$GPGSV,3,3,12,30,11,323,22,51,,,37,02,07,219,,26,13,129,*48
$BDGSV,1,1,02,214,55,213,29,211,,,*54
$GPGGA,213101.0,3437.876557,S,05822.388228,W,1,08,0.8,7.8,M,22.0,M,,*57
$GPVTG,307.5,T,313.0,M,2.1,N,3.9,K,A*2A
$GPGSA,A,2,03,06,07,09,16,22,23,30,,,,,1.2,0.8,0.8*3E
$GNGSA,A,2,03,06,07,09,16,22,23,30,,,,,1.2,0.8,0.8*20
$GNGSA,A,2,70,71,73,74,86,,,,,,,,1.2,0.8,0.8*26
$BDGSA,A,2,,,,,,,,,,,,,1.2,0.8,0.8*21
$GPRMC,213101.0,A,3437.876557,S,05822.388228,W,2.1,307.5,020517,5.5,W,A*10
$GLGSV,2,1,08,74,29,352,13,70,39,091,18,86,09,289,24,73,68,081,18*64
$GLGSV,2,2,08,80,30,144,18,71,55,175,30,72,17,224,13,87,12,236,*66
$GPGSV,3,1,12,01,04,005,13,03,49,056,25,06,35,253,27,07,48,326,21*7E
$GPGSV,3,2,12,09,56,224,24,16,23,101,23,22,20,049,26,23,56,143,27*7E
$GPGSV,3,3,12,30,11,323,21,51,,,38,02,07,219,,26,13,129,*44
$BDGSV,1,1,02,214,55,213,19,211,,,*57
$GPGGA,213102.0,3437.876092,S,05822.388695,W,1,08,0.8,6.8,M,22.0,M,,*5B
$GPVTG,312.0,T,317.5,M,1.9,N,3.6,K,A*2E
$GPGSA,A,2,03,06,07,09,16,22,23,30,,,,,1.2,0.8,0.8*3E
$GNGSA,A,2,03,06,07,09,16,22,23,30,,,,,1.2,0.8,0.8*20
$GNGSA,A,2,70,71,73,74,86,,,,,,,,1.2,0.8,0.8*26
$BDGSA,A,2,,,,,,,,,,,,,1.2,0.8,0.8*21
$GPRMC,213102.0,A,3437.876092,S,05822.388695,W,1.9,312.0,020517,5.5,W,A*17
$GLGSV,2,1,08,74,29,352,13,70,39,091,18,86,09,289,22,73,68,081,18*62
$GLGSV,2,2,08,80,30,144,18,71,55,175,28,72,17,224,13,87,12,236,*6F
$GPGSV,3,1,12,01,04,005,13,03,49,056,28,06,35,253,21,07,48,326,24*70
$GPGSV,3,2,12,09,56,224,27,16,23,101,22,22,20,049,26,23,56,143,25*7E
$GPGSV,3,3,12,30,11,323,22,51,,,37,02,07,219,,26,13,129,*48
$BDGSV,1,1,02,214,55,213,21,211,,,*5C
$GPGGA,213103.0,3437.875691,S,05822.390278,W,1,08,0.8,6.4,M,22.0,M,,*5E
$GPVTG,304.9,T,310.3,M,2.6,N,4.7,K,A*2B
$GPGSA,A,2,03,06,07,09,16,22,23,30,,,,,1.2,0.8,0.8*3E
$GNGSA,A,2,03,06,07,09,16,22,23,30,,,,,1.2,0.8,0.8*20
$GNGSA,A,2,70,71,73,74,86,,,,,,,,1.2,0.8,0.8*26
$BDGSA,A,2,,,,,,,,,,,,,1.2,0.8,0.8*21
$GPRMC,213103.0,A,3437.875691,S,05822.390278,W,2.6,304.9,020517,5.5,W,A*1C
$GLGSV,2,1,08,74,29,352,13,70,39,091,18,86,09,289,20,73,68,081,20*6B
$GLGSV,2,2,08,80,30,144,16,71,55,175,28,72,17,224,13,87,12,236,*61
$GPGSV,3,1,12,01,04,005,13,03,49,056,27,06,35,253,22,07,48,326,26*7E
$GPGSV,3,2,12,09,56,224,26,16,23,101,21,22,20,049,27,23,56,143,27*7F
$GPGSV,3,3,12,30,11,323,20,51,,,33,02,07,219,,26,13,129,*4E
$BDGSV,1,1,02,214,55,213,25,211,,,*58
$GPGGA,213104.0,3437.874845,S,05822.391102,W,1,08,0.8,6.1,M,22.0,M,,*55
$GPVTG,307.5,T,313.0,M,2.5,N,4.7,K,A*27
$GPGSA,A,2,03,06,07,09,16,22,23,30,,,,,1.2,0.8,0.8*3E
$GNGSA,A,2,03,06,07,09,16,22,23,30,,,,,1.2,0.8,0.8*20
$GNGSA,A,2,70,71,73,74,86,,,,,,,,1.2,0.8,0.8*26
$BDGSA,A,2,,,,,,,,,,,,,1.2,0.8,0.8*21
$GPRMC,213104.0,A,3437.874845,S,05822.391102,W,2.5,307.5,020517,5.5,W,A*1E
$GLGSV,2,1,08,74,29,352,13,70,39,091,14,86,09,289,23,73,68,081,19*6E
$GLGSV,2,2,08,80,30,144,18,71,55,175,33,72,17,224,13,87,12,236,*65
$GPGSV,3,1,12,01,04,005,13,03,49,056,25,06,35,253,20,07,48,326,24*7C
$GPGSV,3,2,12,09,56,224,26,16,23,101,20,22,20,049,26,23,56,143,27*7F
$GPGSV,3,3,12,30,11,323,21,51,,,33,02,07,219,,26,13,129,*4F
$BDGSV,1,1,02,214,55,213,22,211,,,*5F
$GPGGA,213105.0,3437.874527,S,05822.391444,W,1,08,0.8,4.9,M,22.0,M,,*50
$GPVTG,324.3,T,329.8,M,2.1,N,3.8,K,A*2D
$GPGSA,A,2,03,06,07,09,16,22,23,30,,,,,1.2,0.8,0.8*3E
$GNGSA,A,2,03,06,07,09,16,22,23,30,,,,,1.2,0.8,0.8*20
$GNGSA,A,2,70,71,73,74,86,,,,,,,,1.2,0.8,0.8*26
