$GPGGA,211444.0,,,,,0,,,,,,,,*7E
$GPVTG,,T,,M,,N,,K,N*2C
$GPRMC,,V,,,,,,,,,,N*53
$GPGSA,A,1,,,,,,,,,,,,,,,*1E
$GNGSA,A,1,,,,,,,,,,,,,,,*00
$BDGSA,A,1,,,,,,,,,,,,,,,*0F
$GLGSV,2,1,08,74,21,354,,70,42,102,,86,15,284,,73,64,060,*6A
$GLGSV,2,2,08,80,37,139,,87,13,229,,71,51,187,,72,12,229,*6D
$GPGSV,3,1,11,06,34,244,36,07,41,330,39,09,53,236,37,01,10,004,*7D
$GPGSV,3,2,11,02,03,215,,03,55,064,,16,22,094,,22,26,053,*76
$GPGSV,3,3,11,23,60,154,,26,14,122,,30,05,324,*4D
$BDGSV,1,1,02,211,01,312,,214,49,217,*67
$GPGGA,211444.3,,,,,0,,,,,,,,*7D
$GPVTG,,T,,M,,N,,K,N*2C
$GPRMC,,V,,,,,,,,,,N*53
$GPGSA,A,1,,,,,,,,,,,,,,,*1E
$GNGSA,A,1,,,,,,,,,,,,,,,*00
$BDGSA,A,1,,,,,,,,,,,,,,,*0F
$GLGSV,2,1,08,74,21,354,,70,42,102,,86,15,284,,73,64,060,*6A
$GLGSV,2,2,08,80,37,139,,87,13,229,,71,51,187,,72,12,229,*6D
$GPGSV,3,1,11,06,34,244,36,07,41,330,39,09,53,236,37,01,10,004,*7D
$GPGSV,3,2,11,02,03,215,,03,55,064,,16,22,094,,22,26,053,*76
$GPGSV,3,3,11,23,60,154,,26,14,122,,30,05,324,*4D
$BDGSV,1,1,02,211,01,312,,214,49,217,*67
$GPGGA,211445.0,,,,,0,,,,,,,,*7F
$GPVTG,,T,,M,,N,,K,N*2C
$GPRMC,,V,,,,,,,,,,N*53
$GPGSA,A,1,,,,,,,,,,,,,,,*1E
$GNGSA,A,1,,,,,,,,,,,,,,,*00
$BDGSA,A,1,,,,,,,,,,,,,,,*0F
$GLGSV,2,1,08,86,15,284,23,87,13,229,32,72,12,229,27,74,21,354,*66
$GLGSV,2,2,08,70,42,102,,73,64,060,,80,37,139,,71,51,187,*64
$GPGSV,4,1,13,03,55,064,21,06,34,244,38,07,41,330,43,09,53,236,35*7F
$GPGSV,4,2,13,16,22,094,21,22,26,053,24,46,,,32,51,,,38*7C
$GPGSV,4,3,13,01,10,004,,02,03,215,,23,60,154,,26,14,122,*78
$GPGSV,4,4,13,30,05,324,*48
$BDGSV,1,1,02,211,01,312,,214,49,217,*67
$GPGGA,211446.0,,,,,0,,,,,,,,*7C
$GPVTG,,T,,M,,N,,K,N*2C
$GPRMC,,V,,,,,,,,,,N*53
$GPGSA,A,1,,,,,,,,,,,,,,,*1E
$GNGSA,A,1,,,,,,,,,,,,,,,*00
$BDGSA,A,1,,,,,,,,,,,,,,,*0F
$GLGSV,2,1,08,86,15,284,26,73,64,060,21,87,13,229,27,71,51,187,19*68
$GLGSV,2,2,08,72,12,229,26,74,21,354,,70,42,102,,80,37,139,*61
$GPGSV,4,1,13,03,55,064,22,06,34,244,36,07,41,330,42,09,53,236,36*70
$GPGSV,4,2,13,16,22,094,24,22,26,053,24,46,,,30,51,,,38*7B
$GPGSV,4,3,13,01,10,004,,02,03,215,,23,60,154,,26,14,122,*78
$GPGSV,4,4,13,30,05,324,*48
$BDGSV,1,1,02,211,01,312,,214,49,217,*67
$GPGGA,211447.0,3437.835521,S,05822.403242,W,1,06,1.0,17.7,M,22.0,M,,*65
$GPVTG,40.0,T,45.5,M,2.6,N,4.8,K,A*2B
$GPGSA,A,2,03,06,07,09,16,22,,,,,,,1.3,1.0,0.8*34
$GNGSA,A,2,03,06,07,09,16,22,,,,,,,1.3,1.0,0.8*2A
$GNGSA,A,2,72,73,86,87,,,,,,,,,1.3,1.0,0.8*26
$BDGSA,A,2,,,,,,,,,,,,,1.3,1.0,0.8*29
$GPRMC,211447.0,A,3437.835521,S,05822.403242,W,2.6,40.0,020517,5.5,W,A*29
$GLGSV,2,1,08,74,21,354,17,86,15,284,25,73,64,060,26,87,13,229,33*69
$GLGSV,2,2,08,71,51,187,18,72,12,229,28,70,42,102,,80,37,139,*68
$GPGSV,4,1,13,03,55,064,21,06,34,244,35,07,41,330,43,09,53,236,36*71
$GPGSV,4,2,13,16,22,094,31,26,14,122,17,46,,,30,51,,,38*7D
$GPGSV,4,3,13,01,10,004,,02,03,215,,22,26,053,,23,60,154,*7A
$GPGSV,4,4,13,30,05,324,*48
$BDGSV,1,1,02,211,01,312,,214,49,217,*67
$GPGGA,211448.0,3437.837772,S,05822.391915,W,1,06,1.0,5.5,M,22.0,M,,*58
$GPVTG,50.3,T,55.8,M,2.6,N,4.9,K,A*24
$GPGSA,A,2,03,06,07,09,16,22,,,,,,,1.3,1.0,0.8*34
$GNGSA,A,2,03,06,07,09,16,22,,,,,,,1.3,1.0,0.8*2A
$GNGSA,A,2,72,73,86,87,,,,,,,,,1.3,1.0,0.8*26
$BDGSA,A,2,,,,,,,,,,,,,1.3,1.0,0.8*29
$GPRMC,211448.0,A,3437.837772,S,05822.391915,W,2.6,50.3,020517,5.5,W,A*27
$GLGSV,2,1,08,74,21,354,17,86,15,284,22,73,64,060,20,87,13,229,35*6E
$GLGSV,2,2,08,71,51,187,18,72,12,229,30,70,42,102,,80,37,139,*61
$GPGSV,3,1,12,03,55,064,26,06,34,244,38,07,41,330,39,09,53,236,35*73
$GPGSV,3,2,12,16,22,094,30,26,14,122,19,51,,,38,01,10,004,*41
$GPGSV,3,3,12,02,03,215,,22,26,053,,23,60,154,,30,05,324,*7B
$BDGSV,1,1,02,211,01,312,,214,49,217,*67
$GPGGA,211449.0,3437.837163,S,05822.392834,W,1,06,1.0,3.8,M,22.0,M,,*55
$GPVTG,27.0,T,32.5,M,2.4,N,4.5,K,A*25
$GPGSA,A,2,03,06,07,09,16,22,,,,,,,1.3,1.0,0.8*34
$GNGSA,A,2,03,06,07,09,16,22,,,,,,,1.3,1.0,0.8*2A
$GNGSA,A,2,72,73,86,87,,,,,,,,,1.3,1.0,0.8*26
$BDGSA,A,2,,,,,,,,,,,,,1.3,1.0,0.8*29
$GPRMC,211449.0,A,3437.837163,S,05822.392834,W,2.4,27.0,020517,5.5,W,A*20
$GLGSV,2,1,08,74,21,354,16,86,15,284,24,73,64,060,21,87,13,229,33*6E
$GLGSV,2,2,08,71,51,187,18,72,12,229,30,70,42,102,,80,37,139,*61
$GPGSV,3,1,12,01,10,004,15,03,55,064,27,06,34,244,36,07,41,330,38*73
$GPGSV,3,2,12,09,53,236,35,16,22,094,26,22,26,053,23,23,60,154,24*79
$GPGSV,3,3,12,26,14,122,26,51,,,38,02,03,215,,30,05,324,*45
$BDGSV,1,1,02,211,01,312,,214,49,217,*67
$GPGGA,211450.0,3437.836751,S,05822.392113,W,1,08,0.9,5.0,M,22.0,M,,*5F
$GPVTG,32.7,T,38.2,M,2.5,N,4.7,K,A*28
$GPGSA,A,2,03,06,07,09,16,22,23,26,,,,,1.2,0.9,0.8*38
$GNGSA,A,2,03,06,07,09,16,22,23,26,,,,,1.2,0.9,0.8*26
$GNGSA,A,2,72,73,86,87,,,,,,,,,1.2,0.9,0.8*2F
$BDGSA,A,2,,,,,,,,,,,,,1.2,0.9,0.8*20
$GPRMC,211450.0,A,3437.836751,S,05822.392113,W,2.5,32.7,020517,5.5,W,A*20
$GLGSV,2,1,08,74,21,354,15,70,42,102,13,86,15,284,22,73,64,060,29*67
$GLGSV,2,2,08,87,13,229,33,71,51,187,18,72,12,229,32,80,37,139,*65
$GPGSV,3,1,12,01,10,004,15,03,55,064,28,06,34,244,38,07,41,330,40*7D
$GPGSV,3,2,12,09,53,236,35,16,22,094,31,22,26,053,25,26,14,122,26*7C
$GPGSV,3,3,12,51,,,38,02,03,215,,23,60,154,,30,05,324,*46
$BDGSV,1,1,02,211,01,312,,214,49,217,*67
$GPGGA,211451.0,3437.835735,S,05822.391892,W,1,08,0.9,6.4,M,22.0,M,,*5B
$GPVTG,26.7,T,32.2,M,2.9,N,5.4,K,A*29
$GPGSA,A,2,03,06,07,09,16,22,23,26,,,,,1.2,0.9,0.8*38
$GNGSA,A,2,03,06,07,09,16,22,23,26,,,,,1.2,0.9,0.8*26
$GNGSA,A,2,72,73,86,87,,,,,,,,,1.2,0.9,0.8*2F
$BDGSA,A,2,,,,,,,,,,,,,1.2,0.9,0.8*20
$GPRMC,211451.0,A,3437.835735,S,05822.391892,W,2.9,26.7,020517,5.5,W,A*2A
$GLGSV,2,1,08,74,21,354,15,70,42,102,13,86,15,284,21,73,64,060,22*6F
$GLGSV,2,2,08,87,13,229,29,71,51,187,19,72,12,229,28,80,37,139,*64
$GPGSV,3,1,12,01,10,004,15,03,55,064,23,06,34,244,35,07,41,330,38*74
$GPGSV,3,2,12,09,53,236,32,16,22,094,25,26,14,122,19,51,,,38*48
$GPGSV,3,3,12,02,03,215,,22,26,053,,23,60,154,,30,05,324,*7B
$BDGSV,1,1,02,211,01,312,,214,49,217,*67
$GPGGA,211452.0,3437.835370,S,05822.390773,W,1,08,0.9,9.0,M,22.0,M,,*57
$GPVTG,40.8,T,46.3,M,3.4,N,6.3,K,A*2C
$GPGSA,A,2,03,06,07,09,16,22,23,26,,,,,1.2,0.9,0.8*38
$GNGSA,A,2,03,06,07,09,16,22,23,26,,,,,1.2,0.9,0.8*26
$GNGSA,A,2,72,73,86,87,,,,,,,,,1.2,0.9,0.8*2F
$BDGSA,A,2,,,,,,,,,,,,,1.2,0.9,0.8*20
$GPRMC,211452.0,A,3437.835370,S,05822.390773,W,3.4,40.8,020517,5.5,W,A*2E
$GLGSV,2,1,08,74,21,354,15,70,42,102,13,86,15,284,17,73,64,060,24*6C
$GLGSV,2,2,08,87,13,229,30,71,51,187,18,72,12,229,30,80,37,139,*64
$GPGSV,3,1,12,01,10,004,15,03,55,064,23,06,34,244,35,07,41,330,39*75
$GPGSV,3,2,12,09,53,236,35,16,22,094,31,26,14,122,19,51,,,38*4A
$GPGSV,3,3,12,02,03,215,,22,26,053,,23,60,154,,30,05,324,*7B
$BDGSV,1,1,02,211,01,312,,214,49,217,*67
$GPGGA,211453.0,3437.834453,S,05822.391315,W,1,08,0.9,7.5,M,22.0,M,,*5F
$GPVTG,30.4,T,35.9,M,3.0,N,5.5,K,A*28
$GPGSA,A,2,03,06,07,09,16,22,23,26,,,,,1.2,0.9,0.8*38
$GNGSA,A,2,03,06,07,09,16,22,23,26,,,,,1.2,0.9,0.8*26
$GNGSA,A,2,72,73,86,87,,,,,,,,,1.2,0.9,0.8*2F
$BDGSA,A,2,,,,,,,,,,,,,1.2,0.9,0.8*20
$GPRMC,211453.0,A,3437.834453,S,05822.391315,W,3.0,30.4,020517,5.5,W,A*22
$GLGSV,2,1,08,74,21,354,14,70,42,102,13,86,15,284,16,73,64,060,27*6F
$GLGSV,2,2,08,87,13,229,28,71,51,187,18,72,12,229,29,80,37,139,*65
$GPGSV,3,1,12,01,10,004,15,03,55,064,27,06,34,244,32,07,41,330,40*78
$GPGSV,3,2,12,09,53,236,36,16,22,094,35,26,14,122,16,51,,,38*42
$GPGSV,3,3,12,02,03,215,,22,26,053,,23,60,154,,30,05,324,*7B
$BDGSV,1,1,02,211,01,312,,214,49,217,*67
$GPGGA,211454.0,3437.834058,S,05822.390139,W,1,08,0.9,8.3,M,22.0,M,,*53
$GPVTG,37.7,T,43.2,M,2.9,N,5.4,K,A*2F
$GPGSA,A,2,03,06,07,09,16,22,23,26,,,,,1.2,0.9,0.8*38
$GNGSA,A,2,03,06,07,09,16,22,23,26,,,,,1.2,0.9,0.8*26
$GNGSA,A,2,72,73,86,87,,,,,,,,,1.2,0.9,0.8*2F
$BDGSA,A,2,,,,,,,,,,,,,1.2,0.9,0.8*20
$GPRMC,211454.0,A,3437.834058,S,05822.390139,W,2.9,37.7,020517,5.5,W,A*2B
$GLGSV,2,1,08,74,21,354,14,70,42,102,13,86,15,284,17,73,64,060,30*68
$GLGSV,2,2,08,87,13,229,29,71,51,187,18,72,12,229,26,80,37,139,*6B
$GPGSV,3,1,12,01,10,004,14,02,03,215,13,03,55,064,26,06,34,244,34*7D
$GPGSV,3,2,12,07,41,330,40,09,53,236,33,16,22,094,31,26,14,122,19*75
$GPGSV,3,3,12,51,,,38,22,26,053,,23,60,154,,30,05,324,*43
$BDGSV,1,1,02,211,01,312,,214,49,217,*67
$GPGGA,211455.0,3437.833346,S,05822.388798,W,1,08,0.9,8.8,M,22.0,M,,*56
$GPVTG,40.8,T,46.3,M,3.3,N,6.1,K,A*29
$GPGSA,A,2,03,06,07,09,16,22,23,26,,,,,1.2,0.9,0.8*38
$GNGSA,A,2,03,06,07,09,16,22,23,26,,,,,1.2,0.9,0.8*26
$GNGSA,A,2,72,73,86,87,,,,,,,,,1.2,0.9,0.8*2F
$BDGSA,A,2,,,,,,,,,,,,,1.2,0.9,0.8*20
$GPRMC,211455.0,A,3437.833346,S,05822.388798,W,3.3,40.8,020517,5.5,W,A*21
$GLGSV,2,1,08,74,21,354,14,70,42,102,13,86,15,284,17,73,64,060,28*61
$GLGSV,2,2,08,87,13,229,31,71,51,187,18,72,12,229,29,80,37,139,*6D
$GPGSV,3,1,12,01,10,004,14,02,03,215,13,03,55,064,26,06,34,244,36*7F
$GPGSV,3,2,12,07,41,330,39,09,53,236,36,16,22,094,22,22,26,053,25*71
$GPGSV,3,3,12,23,60,154,24,26,14,122,18,51,,,38,30,05,324,*4E
$BDGSV,1,1,02,211,01,312,,214,49,217,*67
$GPGGA,211456.0,3437.832764,S,05822.388066,W,1,08,0.9,8.7,M,22.0,M,,*59
$GPVTG,44.1,T,49.6,M,3.4,N,6.3,K,A*2B
$GPGSA,A,2,03,06,07,09,16,22,23,26,,,,,1.2,0.9,0.8*38
$GNGSA,A,2,03,06,07,09,16,22,23,26,,,,,1.2,0.9,0.8*26
$GNGSA,A,2,72,73,86,87,,,,,,,,,1.2,0.9,0.8*2F
$BDGSA,A,2,,,,,,,,,,,,,1.2,0.9,0.8*20
$GPRMC,211456.0,A,3437.832764,S,05822.388066,W,3.4,44.1,020517,5.5,W,A*2B
$GLGSV,2,1,08,74,21,354,14,70,42,102,13,86,15,284,17,73,64,060,24*6D
$GLGSV,2,2,08,87,13,229,30,71,51,187,18,72,12,229,29,80,37,139,*6C
$GPGSV,3,1,12,01,10,004,14,02,03,215,12,03,55,064,25,06,34,244,39*72
$GPGSV,3,2,12,07,41,330,36,09,53,236,34,16,22,094,25,26,14,122,18*77
$GPGSV,3,3,12,51,,,38,22,26,053,,23,60,154,,30,05,324,*43
$BDGSV,1,1,02,211,01,312,,214,49,217,*67
$GPGGA,211457.0,3437.831057,S,05822.387065,W,1,07,1.0,8.9,M,22.0,M,,*59
$GPVTG,44.7,T,50.2,M,4.1,N,7.6,K,A*27
$GPGSA,A,2,03,06,07,09,16,22,23,,,,,,1.2,1.0,0.8*34
$GNGSA,A,2,03,06,07,09,16,22,23,,,,,,1.2,1.0,0.8*2A
$GNGSA,A,2,72,73,86,87,,,,,,,,,1.2,1.0,0.8*27
$BDGSA,A,2,,,,,,,,,,,,,1.2,1.0,0.8*28
$GPRMC,211457.0,A,3437.831057,S,05822.387065,W,4.1,44.7,020517,5.5,W,A*26
$GLGSV,2,1,08,74,21,354,14,70,42,102,12,86,15,284,14,73,64,060,23*68
$GLGSV,2,2,08,87,13,229,28,71,51,187,16,72,12,229,28,80,37,139,*6A
$GPGSV,3,1,12,01,10,004,15,02,03,215,12,03,55,064,27,06,34,244,36*7E
$GPGSV,3,2,12,07,41,330,31,09,53,236,33,16,22,094,24,26,14,122,18*76
$GPGSV,3,3,12,51,,,38,22,26,053,,23,60,154,,30,05,324,*43
$BDGSV,1,1,02,211,01,312,,214,49,217,*67
$GPGGA,211458.0,3437.830194,S,05822.386583,W,1,07,1.1,9.4,M,22.0,M,,*58
$GPVTG,45.6,T,51.1,M,3.4,N,6.4,K,A*24
$GPGSA,A,2,03,06,07,09,16,22,23,,,,,,1.4,1.1,0.8*33
$GNGSA,A,2,03,06,07,09,16,22,23,,,,,,1.4,1.1,0.8*2D
$GNGSA,A,2,72,73,87,,,,,,,,,,1.4,1.1,0.8*2E
$BDGSA,A,2,,,,,,,,,,,,,1.4,1.1,0.8*2F
$GPRMC,211458.0,A,3437.830194,S,05822.386583,W,3.4,45.6,020517,5.5,W,A*28
$GLGSV,2,1,08,74,21,354,14,70,42,102,12,86,15,284,14,73,64,060,24*6F
$GLGSV,2,2,08,87,13,229,30,71,51,187,18,72,12,229,29,80,37,139,*6C
$GPGSV,3,1,12,01,10,004,19,02,03,215,12,03,55,064,28,06,34,244,37*7C
$GPGSV,3,2,12,07,41,330,30,09,53,236,33,16,22,094,26,23,60,154,25*7C
$GPGSV,3,3,12,26,14,122,15,51,,,38,22,26,053,,30,05,324,*40
$BDGSV,1,1,02,211,01,312,,214,49,217,*67
$GPGGA,211459.0,3437.830068,S,05822.385824,W,1,07,1.1,9.3,M,22.0,M,,*5F
$GPVTG,39.8,T,45.3,M,2.6,N,4.8,K,A*2B
$GPGSA,A,2,03,06,07,09,16,22,23,,,,,,1.4,1.1,0.8*33
$GNGSA,A,2,03,06,07,09,16,22,23,,,,,,1.4,1.1,0.8*2D
$GNGSA,A,2,72,73,87,,,,,,,,,,1.4,1.1,0.8*2E
$BDGSA,A,2,,,,,,,,,,,,,1.4,1.1,0.8*2F
$GPRMC,211459.0,A,3437.830068,S,05822.385824,W,2.6,39.8,020517,5.5,W,A*2E
$GLGSV,2,1,08,74,21,354,14,70,42,102,12,86,15,284,14,73,64,060,28*63
$GLGSV,2,2,08,80,37,139,19,87,13,229,28,71,51,187,20,72,12,229,27*68
$GPGSV,3,1,12,01,10,004,19,02,03,215,12,03,55,064,27,06,34,244,34*70
$GPGSV,3,2,12,07,41,330,26,09,53,236,32,16,22,094,24,23,60,154,25*78
$GPGSV,3,3,12,26,14,122,15,51,,,38,22,26,053,,30,05,324,*40
$BDGSV,1,1,02,211,01,312,,214,49,217,*67
$GPGGA,211500.0,3437.829798,S,05822.385074,W,1,07,1.0,9.7,M,22.0,M,,*5A
$GPVTG,54.7,T,60.2,M,2.9,N,5.3,K,A*2C
$GPGSA,A,2,03,06,07,09,16,22,23,,,,,,1.3,1.0,0.8*35
$GNGSA,A,2,03,06,07,09,16,22,23,,,,,,1.3,1.0,0.8*2B
$GNGSA,A,2,71,72,73,87,,,,,,,,,1.3,1.0,0.8*2E
$BDGSA,A,2,,,,,,,,,,,,,1.3,1.0,0.8*29
$GPRMC,211500.0,A,3437.829798,S,05822.385074,W,2.9,54.7,020517,5.5,W,A*25
$GLGSV,2,1,08,74,21,354,14,70,42,102,12,86,15,284,14,73,64,060,28*63
$GLGSV,2,2,08,80,37,139,18,87,13,229,29,71,51,187,18,72,12,229,26*62
$GPGSV,3,1,12,01,10,004,17,02,03,215,12,03,55,064,29,06,34,244,34*70
$GPGSV,3,2,12,07,41,330,26,09,53,236,32,16,22,094,25,23,60,154,27*7B
$GPGSV,3,3,12,26,14,122,15,51,,,38,22,26,053,,30,05,324,*40
$BDGSV,1,1,02,211,01,312,,214,49,217,*67
$GPGGA,211501.0,3437.829083,S,05822.383613,W,1,08,0.9,8.8,M,22.0,M,,*5E
$GPVTG,56.1,T,61.6,M,3.1,N,5.8,K,A*2F
$GPGSA,A,2,01,03,06,07,09,16,22,23,,,,,1.2,0.9,0.8*3D
$GNGSA,A,2,01,03,06,07,09,16,22,23,,,,,1.2,0.9,0.8*23
$GNGSA,A,2,71,72,73,87,,,,,,,,,1.2,0.9,0.8*27
$BDGSA,A,2,,,,,,,,,,,,,1.2,0.9,0.8*20
$GPRMC,211501.0,A,3437.829083,S,05822.383613,W,3.1,56.1,020517,5.5,W,A*25
$GLGSV,2,1,08,74,21,354,13,70,42,102,12,86,15,284,14,73,64,060,26*6A
$GLGSV,2,2,08,80,37,139,19,87,13,229,27,71,51,187,22,72,12,229,24*66
$GPGSV,3,1,12,01,10,004,17,02,03,215,12,03,55,064,27,06,34,244,34*7E
$GPGSV,3,2,12,07,41,330,27,09,53,236,33,16,22,094,29,23,60,154,23*73
$GPGSV,3,3,12,26,14,122,14,51,,,38,22,26,053,,30,05,324,*41
$BDGSV,1,1,02,211,01,312,,214,49,217,*67
$GPGGA,211502.0,3437.827777,S,05822.382493,W,1,08,0.7,9.9,M,22.0,M,,*5A
$GPVTG,55.8,T,61.3,M,2.7,N,4.9,K,A*27
$GPGSA,A,2,01,03,06,07,09,16,23,26,,,,,1.0,0.7,0.7*3A
$GNGSA,A,2,01,03,06,07,09,16,23,26,,,,,1.0,0.7,0.7*24
$GNGSA,A,2,71,72,73,74,87,,,,,,,,1.0,0.7,0.7*27
$BDGSA,A,2,,,,,,,,,,,,,1.0,0.7,0.7*23
$GPRMC,211502.0,A,3437.827777,S,05822.382493,W,2.7,55.8,020517,5.5,W,A*22
$GLGSV,2,1,08,74,21,354,21,70,42,102,12,86,15,284,12,73,64,060,22*69
$GLGSV,2,2,08,80,37,139,18,87,13,229,25,71,51,187,25,72,12,229,27*61
$GPGSV,3,1,12,01,10,004,17,02,03,215,12,03,55,064,21,06,34,244,38*74
$GPGSV,3,2,12,07,41,330,28,09,53,236,33,16,22,094,26,26,14,122,14*70
$GPGSV,3,3,12,51,,,38,22,26,053,,23,60,154,,30,05,324,*43
$BDGSV,1,1,02,211,01,312,,214,49,217,*67
$GPGGA,211503.0,3437.827069,S,05822.382111,W,1,08,0.7,10.8,M,22.0,M,,*65
$GPVTG,55.7,T,61.2,M,3.0,N,5.6,K,A*21
$GPGSA,A,2,01,03,06,07,09,16,23,26,,,,,1.0,0.7,0.7*3A
$GNGSA,A,2,01,03,06,07,09,16,23,26,,,,,1.0,0.7,0.7*24
$GNGSA,A,2,71,72,73,74,87,,,,,,,,1.0,0.7,0.7*27
$BDGSA,A,2,,,,,,,,,,,,,1.0,0.7,0.7*23
$GPRMC,211503.0,A,3437.827069,S,05822.382111,W,3.0,55.7,020517,5.5,W,A*2D
$GLGSV,2,1,08,74,21,354,25,70,42,102,12,86,15,284,16,73,64,060,24*6F
$GLGSV,2,2,08,80,37,139,18,87,13,229,27,71,51,187,23,72,12,229,29*6B
$GPGSV,3,1,12,01,10,004,19,02,03,215,12,03,55,064,24,06,34,244,36*71
$GPGSV,3,2,12,07,41,330,25,09,53,236,35,16,22,094,27,26,14,122,16*78
$GPGSV,3,3,12,51,,,38,22,26,053,,23,60,154,,30,05,324,*43
$BDGSV,1,1,02,211,01,312,,214,49,217,*67
$GPGGA,211504.0,3437.826323,S,05822.381977,W,1,08,0.7,11.7,M,22.0,M,,*6B
$GPVTG,55.6,T,61.1,M,2.9,N,5.3,K,A*2E
$GPGSA,A,2,01,03,06,07,09,16,23,26,,,,,1.0,0.7,0.7*3A
$GNGSA,A,2,01,03,06,07,09,16,23,26,,,,,1.0,0.7,0.7*24
$GNGSA,A,2,71,72,73,74,87,,,,,,,,1.0,0.7,0.7*27
$BDGSA,A,2,,,,,,,,,,,,,1.0,0.7,0.7*23
$GPRMC,211504.0,A,3437.826323,S,05822.381977,W,2.9,55.6,020517,5.5,W,A*24
$GLGSV,2,1,08,74,21,354,27,70,42,102,12,86,15,284,18,73,64,060,26*61
$GLGSV,2,2,08,80,37,139,18,87,13,229,25,71,51,187,26,72,12,229,26*63
$GPGSV,3,1,12,01,10,004,19,02,03,215,12,03,55,064,24,06,34,244,38*7F
$GPGSV,3,2,12,07,41,330,27,09,53,236,36,16,22,094,27,22,26,053,24*7A
$GPGSV,3,3,12,23,60,154,23,26,14,122,16,51,,,38,30,05,324,*47
$BDGSV,1,1,02,211,01,312,,214,49,217,*67
$GPGGA,211505.0,3437.825335,S,05822.381969,W,1,09,0.7,11.2,M,22.0,M,,*65
$GPVTG,34.2,T,39.7,M,2.8,N,5.1,K,A*25
$GPGSA,A,2,01,03,06,07,09,16,22,23,26,,,,1.0,0.7,0.7*3A
$GNGSA,A,2,01,03,06,07,09,16,22,23,26,,,,1.0,0.7,0.7*24
$GNGSA,A,2,71,72,73,74,87,,,,,,,,1.0,0.7,0.7*27
$BDGSA,A,2,,,,,,,,,,,,,1.0,0.7,0.7*23
$GPRMC,211505.0,A,3437.825335,S,05822.381969,W,2.8,34.2,020517,5.5,W,A*2C
$GLGSV,2,1,08,74,21,354,27,70,42,102,12,86,15,284,18,73,64,060,28*6F
$GLGSV,2,2,08,80,37,139,18,87,13,229,28,71,51,187,25,72,12,229,28*63
$GPGSV,3,1,12,01,10,004,17,02,03,215,12,03,55,064,31,06,34,244,35*78
$GPGSV,3,2,12,07,41,330,32,09,53,236,35,16,22,094,28,22,26,053,22*74
$GPGSV,3,3,12,23,60,154,25,26,14,122,16,51,,,38,30,05,324,*41
$BDGSV,1,1,02,211,01,312,,214,49,217,*67
$GPGGA,211506.0,3437.824622,S,05822.380659,W,1,09,0.7,10.9,M,22.0,M,,*63
$GPVTG,35.5,T,41.0,M,3.3,N,6.1,K,A*22
$GPGSA,A,2,01,03,06,07,09,16,22,23,26,,,,1.0,0.7,0.7*3A
$GNGSA,A,2,01,03,06,07,09,16,22,23,26,,,,1.0,0.7,0.7*24
$GNGSA,A,2,71,72,73,74,87,,,,,,,,1.0,0.7,0.7*27
$BDGSA,A,2,,,,,,,,,,,,,1.0,0.7,0.7*23
$GPRMC,211506.0,A,3437.824622,S,05822.380659,W,3.3,35.5,020517,5.5,W,A*2C
$GLGSV,2,1,08,74,21,354,26,86,15,284,18,73,64,060,24,80,37,139,18*6D
$GLGSV,2,2,08,87,13,229,24,71,51,187,26,72,12,229,28,70,42,102,*60
$GPGSV,3,1,12,01,10,004,17,02,03,215,12,03,55,064,25,06,34,244,38*70
$GPGSV,3,2,12,07,41,330,34,09,53,236,38,16,22,094,25,26,14,122,16*77
$GPGSV,3,3,12,51,,,38,22,26,053,,23,60,154,,30,05,324,*43
$BDGSV,1,1,02,211,01,312,,214,49,217,*67
$GPGGA,211507.0,3437.824008,S,05822.380042,W,1,08,0.8,10.6,M,22.0,M,,*61
$GPVTG,38.9,T,44.4,M,3.2,N,5.9,K,A*28
$GPGSA,A,2,03,06,07,09,16,22,23,26,,,,,1.1,0.8,0.8*3A
$GNGSA,A,2,03,06,07,09,16,22,23,26,,,,,1.1,0.8,0.8*24
$GNGSA,A,2,71,72,73,74,87,,,,,,,,1.1,0.8,0.8*26
$BDGSA,A,2,,,,,,,,,,,,,1.1,0.8,0.8*22
$GPRMC,211507.0,A,3437.824008,S,05822.380042,W,3.2,38.9,020517,5.5,W,A*2F
$GLGSV,2,1,08,74,21,354,26,86,15,284,18,73,64,060,23,80,37,139,18*6A
$GLGSV,2,2,08,87,13,229,25,71,51,187,27,72,12,229,25,70,42,102,*6D
$GPGSV,3,1,12,01,10,004,17,02,03,215,12,03,55,064,25,06,34,244,33*7B
$GPGSV,3,2,12,07,41,330,32,09,53,236,35,16,22,094,25,26,14,122,17*7D
$GPGSV,3,3,12,51,,,38,22,26,053,,23,60,154,,30,05,324,*43
$BDGSV,1,1,02,211,01,312,,214,49,217,*67
$GPGGA,211508.0,3437.823368,S,05822.379543,W,1,08,0.8,9.2,M,22.0,M,,*52
$GPVTG,42.7,T,48.2,M,3.3,N,6.1,K,A*2B
$GPGSA,A,2,03,06,07,09,16,22,23,26,,,,,1.1,0.8,0.8*3A
$GNGSA,A,2,03,06,07,09,16,22,23,26,,,,,1.1,0.8,0.8*24
$GNGSA,A,2,71,72,73,74,87,,,,,,,,1.1,0.8,0.8*26
$BDGSA,A,2,,,,,,,,,,,,,1.1,0.8,0.8*22
$GPRMC,211508.0,A,3437.823368,S,05822.379543,W,3.3,42.7,020517,5.5,W,A*22
$GLGSV,2,1,08,74,21,354,28,86,15,284,12,73,64,060,24,80,37,139,16*67
$GLGSV,2,2,08,87,13,229,24,71,51,187,23,72,12,229,25,70,42,102,*68
$GPGSV,3,1,12,01,10,004,17,02,03,215,11,03,55,064,27,06,34,244,31*78
$GPGSV,3,2,12,07,41,330,35,09,53,236,30,16,22,094,23,23,60,154,22*78
$GPGSV,3,3,12,26,14,122,17,51,,,38,22,26,053,,30,05,324,*42
$BDGSV,1,1,02,211,01,312,,214,49,217,*67
$GPGGA,211509.0,3437.821954,S,05822.378794,W,1,09,0.7,10.6,M,22.0,M,,*6F
$GPVTG,43.4,T,48.9,M,3.4,N,6.3,K,A*27
$GPGSA,A,2,01,03,06,07,09,16,22,23,26,,,,1.0,0.7,0.7*3A
$GNGSA,A,2,01,03,06,07,09,16,22,23,26,,,,1.0,0.7,0.7*24
$GNGSA,A,2,71,72,73,74,86,87,,,,,,,1.0,0.7,0.7*29
$BDGSA,A,2,,,,,,,,,,,,,1.0,0.7,0.7*23
$GPRMC,211509.0,A,3437.821954,S,05822.378794,W,3.4,43.4,020517,5.5,W,A*28
$GLGSV,2,1,08,74,21,354,27,86,15,284,12,73,64,060,23,80,37,139,19*60
$GLGSV,2,2,08,87,13,229,27,71,51,187,25,72,12,229,26,70,42,102,*6E
$GPGSV,3,1,12,01,10,004,17,02,03,215,11,03,55,064,26,06,34,244,26*7F
$GPGSV,3,2,12,07,41,330,35,09,53,236,34,16,22,094,25,23,60,154,22*7A
$GPGSV,3,3,12,26,14,122,19,51,,,38,22,26,053,,30,05,324,*4C
$BDGSV,1,1,02,211,01,312,,214,49,217,*67
$GPGGA,211510.0,3437.821218,S,05822.378132,W,1,09,0.7,9.1,M,22.0,M,,*51
$GPVTG,43.9,T,49.3,M,2.7,N,5.0,K,A*23
$GPGSA,A,2,01,03,06,07,09,16,22,23,26,,,,1.0,0.7,0.7*3A
$GNGSA,A,2,01,03,06,07,09,16,22,23,26,,,,1.0,0.7,0.7*24
$GNGSA,A,2,71,72,73,74,86,87,,,,,,,1.0,0.7,0.7*29
$BDGSA,A,2,,,,,,,,,,,,,1.0,0.7,0.7*23
$GPRMC,211510.0,A,3437.821218,S,05822.378132,W,2.7,43.9,020517,5.5,W,A*26
$GLGSV,2,1,08,74,21,354,27,86,15,284,12,73,64,060,24,80,37,139,18*66
$GLGSV,2,2,08,87,13,229,27,71,51,187,26,72,12,229,24,70,42,102,*6F
$GPGSV,3,1,12,01,10,004,16,02,03,215,11,03,55,064,25,06,34,244,25*7E
$GPGSV,3,2,12,07,41,330,38,09,53,236,36,16,22,094,22,26,14,122,18*7C
$GPGSV,3,3,12,51,,,38,22,26,053,,23,60,154,,30,05,324,*43
$BDGSV,1,1,02,211,01,312,,214,49,217,*67
$GPGGA,211511.0,3437.820526,S,05822.377524,W,1,09,0.7,8.2,M,22.0,M,,*55
$GPVTG,43.9,T,49.4,M,2.7,N,5.0,K,A*24
$GPGSA,A,2,01,03,06,07,09,16,22,23,26,,,,1.0,0.7,0.7*3A
$GNGSA,A,2,01,03,06,07,09,16,22,23,26,,,,1.0,0.7,0.7*24
$GNGSA,A,2,71,72,73,74,86,87,,,,,,,1.0,0.7,0.7*29
$BDGSA,A,2,,,,,,,,,,,,,1.0,0.7,0.7*23
$GPRMC,211511.0,A,3437.820526,S,05822.377524,W,2.7,43.9,020517,5.5,W,A*20
$GLGSV,2,1,08,74,21,354,27,86,15,284,12,73,64,060,20,80,37,139,18*62
$GLGSV,2,2,08,87,13,229,28,71,51,187,27,72,12,229,25,70,42,102,*60
$GPGSV,3,1,12,01,10,004,16,02,03,215,11,03,55,064,25,06,34,244,28*73
$GPGSV,3,2,12,07,41,330,33,09,53,236,35,16,22,094,20,22,26,053,25*7A
$GPGSV,3,3,12,23,60,154,23,26,14,122,18,51,,,38,30,05,324,*49
$BDGSV,1,1,02,211,01,312,,214,49,217,*67
$GPGGA,211512.0,3437.819521,S,05822.376822,W,1,09,0.7,7.5,M,22.0,M,,*59
$GPVTG,46.8,T,52.3,M,2.8,N,5.2,K,A*20
$GPGSA,A,2,01,03,06,07,09,16,22,23,26,,,,1.0,0.7,0.7*3A
$GNGSA,A,2,01,03,06,07,09,16,22,23,26,,,,1.0,0.7,0.7*24
$GNGSA,A,2,71,72,73,74,86,87,,,,,,,1.0,0.7,0.7*29
$BDGSA,A,2,,,,,,,,,,,,,1.0,0.7,0.7*23
$GPRMC,211512.0,A,3437.819521,S,05822.376822,W,2.8,46.8,020517,5.5,W,A*2F
$GLGSV,2,1,08,74,21,354,28,86,15,284,13,73,64,060,22,80,37,139,18*6E
$GLGSV,2,2,08,87,13,229,27,71,51,187,25,72,12,229,26,70,42,102,*6E
$GPGSV,3,1,12,01,10,004,16,02,03,215,11,03,55,064,24,06,34,244,29*73
$GPGSV,3,2,12,07,41,330,38,09,53,236,33,16,22,094,26,22,26,053,31*74
$GPGSV,3,3,12,23,60,154,26,26,14,122,18,51,,,38,30,05,324,*4C
$BDGSV,1,1,02,211,01,312,,214,49,217,*67
$GPGGA,211513.0,3437.818945,S,05822.375521,W,1,09,0.7,6.8,M,22.0,M,,*56
$GPVTG,46.9,T,52.4,M,2.9,N,5.3,K,A*26
$GPGSA,A,2,01,03,06,07,09,16,22,23,26,,,,1.0,0.7,0.7*3A
$GNGSA,A,2,01,03,06,07,09,16,22,23,26,,,,1.0,0.7,0.7*24
$GNGSA,A,2,71,72,73,74,86,87,,,,,,,1.0,0.7,0.7*29
$BDGSA,A,2,,,,,,,,,,,,,1.0,0.7,0.7*23
$GPRMC,211513.0,A,3437.818945,S,05822.375521,W,2.9,46.9,020517,5.5,W,A*2C
$GLGSV,2,1,08,74,21,354,29,86,15,284,13,73,64,060,23,80,37,139,16*60
$GLGSV,2,2,08,87,13,229,28,71,51,187,21,72,12,229,23,70,42,102,*60
$GPGSV,3,1,12,01,10,004,16,02,03,215,11,03,55,064,24,06,34,244,25*7F
$GPGSV,3,2,12,07,41,330,38,09,53,236,31,16,22,094,22,22,26,053,32*71
$GPGSV,3,3,12,23,60,154,26,26,14,122,21,51,,,38,30,05,324,*46
$BDGSV,1,1,02,211,01,312,,214,49,217,*67
$GPGGA,211514.0,3437.818167,S,05822.373567,W,1,09,0.7,4.5,M,22.0,M,,*52
$GPVTG,48.4,T,53.9,M,3.2,N,5.9,K,A*29
$GPGSA,A,2,01,03,06,07,09,16,22,23,26,,,,1.0,0.7,0.7*3A
$GNGSA,A,2,01,03,06,07,09,16,22,23,26,,,,1.0,0.7,0.7*24
$GNGSA,A,2,71,72,73,74,86,87,,,,,,,1.0,0.7,0.7*29
$BDGSA,A,2,,,,,,,,,,,,,1.0,0.7,0.7*23
$GPRMC,211514.0,A,3437.818167,S,05822.373567,W,3.2,48.4,020517,5.5,W,A*2E
$GLGSV,2,1,08,74,21,354,28,86,15,284,13,73,64,060,20,80,37,139,16*62
$GLGSV,2,2,08,87,13,229,29,71,51,187,22,72,12,229,27,70,42,102,*66
$GPGSV,3,1,12,01,10,004,16,02,03,215,11,03,55,064,23,06,34,244,28*75
$GPGSV,3,2,12,07,41,330,38,09,53,236,33,16,22,094,23,22,26,053,33*73
$GPGSV,3,3,12,23,60,154,22,26,14,122,22,51,,,38,30,05,324,*41
$BDGSV,1,1,02,211,01,312,,214,49,217,*67
$GPGGA,211515.0,3437.817909,S,05822.372277,W,1,08,0.8,3.8,M,22.0,M,,*5F
$GPVTG,48.8,T,54.3,M,2.5,N,4.7,K,A*21
$GPGSA,A,2,03,06,07,09,16,22,23,26,,,,,1.1,0.8,0.8*3A
$GNGSA,A,2,03,06,07,09,16,22,23,26,,,,,1.1,0.8,0.8*24
$GNGSA,A,2,71,72,73,74,87,,,,,,,,1.1,0.8,0.8*26
$BDGSA,A,2,,,,,,,,,,,,,1.1,0.8,0.8*22
$GPRMC,211515.0,A,3437.817909,S,05822.372277,W,2.5,48.8,020517,5.5,W,A*2D
$GLGSV,2,1,08,74,21,354,29,86,15,284,16,73,64,060,20,80,37,139,16*66
$GLGSV,2,2,08,87,13,229,28,71,51,187,21,72,12,229,29,70,42,102,*6A
$GPGSV,3,1,12,01,10,004,16,02,03,215,11,03,55,064,28,06,34,244,28*7E
$GPGSV,3,2,12,07,41,330,40,09,53,236,33,16,22,094,22,22,26,053,34*7A
$GPGSV,3,3,12,26,14,122,18,51,,,38,23,60,154,,30,05,324,*48
$BDGSV,1,1,02,211,01,312,,214,49,217,*67
$GPGGA,211516.0,3437.817802,S,05822.371015,W,1,08,0.8,3.2,M,22.0,M,,*59
$GPVTG,70.6,T,76.1,M,2.7,N,5.0,K,A*22
$GPGSA,A,2,03,06,07,09,16,22,23,26,,,,,1.1,0.8,0.8*3A
$GNGSA,A,2,03,06,07,09,16,22,23,26,,,,,1.1,0.8,0.8*24
$GNGSA,A,2,71,72,73,74,87,,,,,,,,1.1,0.8,0.8*26
$BDGSA,A,2,,,,,,,,,,,,,1.1,0.8,0.8*22
$GPRMC,211516.0,A,3437.817802,S,05822.371015,W,2.7,70.6,020517,5.5,W,A*26
$GLGSV,2,1,08,74,21,354,28,86,15,284,22,73,64,060,22,80,37,139,17*63
$GLGSV,2,2,08,87,13,229,28,71,51,187,22,72,12,229,26,70,42,102,*66
$GPGSV,3,1,12,01,10,004,16,02,03,215,11,03,55,064,31,06,34,244,24*7A
$GPGSV,3,2,12,07,41,330,42,09,53,236,25,16,22,094,21,22,26,053,35*7D
$GPGSV,3,3,12,26,14,122,20,51,,,38,23,60,154,,30,05,324,*43
$BDGSV,1,1,02,211,01,312,,214,49,217,*67
$GPGGA,211517.0,3437.817802,S,05822.369900,W,1,08,0.7,2.9,M,22.0,M,,*59
$GPVTG,77.2,T,82.7,M,3.0,N,5.6,K,A*2C
$GPGSA,A,2,03,06,07,09,16,22,23,26,,,,,1.0,0.7,0.7*3B
$GNGSA,A,2,03,06,07,09,16,22,23,26,,,,,1.0,0.7,0.7*25
$GNGSA,A,2,71,72,73,74,86,87,,,,,,,1.0,0.7,0.7*29
$BDGSA,A,2,,,,,,,,,,,,,1.0,0.7,0.7*23
$GPRMC,211517.0,A,3437.817802,S,05822.369900,W,3.0,77.2,020517,5.5,W,A*26
$GLGSV,2,1,08,74,21,354,32,70,42,102,15,86,15,284,22,73,64,060,33*6F
$GLGSV,2,2,08,80,37,139,17,87,13,229,27,71,51,187,24,72,12,229,22*68
$GPGSV,3,1,12,01,10,004,16,02,03,215,11,03,55,064,36,06,34,244,23*7A
$GPGSV,3,2,12,07,41,330,42,16,22,094,21,22,26,053,36,26,14,122,20*73
$GPGSV,3,3,12,51,,,38,09,53,236,,23,60,154,,30,05,324,*49
$BDGSV,1,1,02,211,01,312,,214,49,217,*67
$GPGGA,211518.0,3437.817846,S,05822.368279,W,1,08,0.7,3.4,M,22.0,M,,*5E
$GPVTG,79.4,T,84.9,M,3.2,N,5.9,K,A*21
$GPGSA,A,2,03,06,07,09,16,22,23,26,,,,,1.0,0.7,0.7*3B
$GNGSA,A,2,03,06,07,09,16,22,23,26,,,,,1.0,0.7,0.7*25
$GNGSA,A,2,71,72,73,74,86,87,,,,,,,1.0,0.7,0.7*29
$BDGSA,A,2,,,,,,,,,,,,,1.0,0.7,0.7*23
$GPRMC,211518.0,A,3437.817846,S,05822.368279,W,3.2,79.4,020517,5.5,W,A*27
$GLGSV,2,1,08,74,21,354,34,86,15,284,19,73,64,060,34,80,37,139,15*63
$GLGSV,2,2,08,87,13,229,25,71,51,187,22,72,12,229,21,70,42,102,*6C
$GPGSV,3,1,12,01,10,004,13,02,03,215,11,03,55,064,35,07,41,330,45*7D
$GPGSV,3,2,12,22,26,053,38,26,14,122,16,51,,,38,06,34,244,*49
$GPGSV,3,3,12,09,53,236,,16,22,094,,23,60,154,,30,05,324,*7C
$BDGSV,1,1,02,211,01,312,,214,49,217,*67
$GPGGA,211519.0,3437.817672,S,05822.367011,W,1,08,0.7,3.3,M,22.0,M,,*52
$GPVTG,81.3,T,86.8,M,3.1,N,5.7,K,A*2F
$GPGSA,A,2,03,06,07,09,16,22,23,26,,,,,1.0,0.7,0.7*3B
$GNGSA,A,2,03,06,07,09,16,22,23,26,,,,,1.0,0.7,0.7*25
$GNGSA,A,2,71,72,73,74,86,87,,,,,,,1.0,0.7,0.7*29
$BDGSA,A,2,,,,,,,,,,,,,1.0,0.7,0.7*23
$GPRMC,211519.0,A,3437.817672,S,05822.367011,W,3.1,81.3,020517,5.5,W,A*2F
$GLGSV,2,1,08,74,21,354,30,86,15,284,17,73,64,060,35,80,37,139,15*68
$GLGSV,2,2,08,87,13,229,23,71,51,187,21,72,12,229,22,70,42,102,*6A
$GPGSV,3,1,12,01,10,004,13,02,03,215,11,03,55,064,37,07,41,330,44*7E
$GPGSV,3,2,12,22,26,053,38,26,14,122,21,51,,,38,06,34,244,*4D
$GPGSV,3,3,12,09,53,236,,16,22,094,,23,60,154,,30,05,324,*7C
$BDGSV,1,1,02,211,01,312,,214,49,217,*67
$GPGGA,211520.0,3437.818117,S,05822.365964,W,1,08,0.7,2.9,M,22.0,M,,*51
$GPVTG,111.5,T,117.0,M,2.9,N,5.4,K,A*2A
$GPGSA,A,2,03,06,07,09,16,22,23,26,,,,,1.0,0.7,0.7*3B
$GNGSA,A,2,03,06,07,09,16,22,23,26,,,,,1.0,0.7,0.7*25
$GNGSA,A,2,71,72,73,74,86,87,,,,,,,1.0,0.7,0.7*29
$BDGSA,A,2,,,,,,,,,,,,,1.0,0.7,0.7*23
$GPRMC,211520.0,A,3437.818117,S,05822.365964,W,2.9,111.5,020517,5.5,W,A*10
$GLGSV,2,1,08,74,21,354,30,86,15,284,17,73,64,060,34,80,37,139,15*69
$GLGSV,2,2,08,87,13,229,22,71,51,187,22,72,12,229,21,70,42,102,*6B
$GPGSV,3,1,12,01,10,004,13,02,03,215,11,03,55,064,39,07,41,330,43*77
$GPGSV,3,2,12,22,26,053,34,26,14,122,17,51,,,38,06,34,244,*44
$GPGSV,3,3,12,09,53,236,,16,22,094,,23,60,154,,30,05,324,*7C
$BDGSV,1,1,02,211,01,312,,214,49,217,*67
$GPGGA,211521.0,3437.818421,S,05822.364708,W,1,07,0.7,2.8,M,22.0,M,,*5B
$GPVTG,114.4,T,119.9,M,3.1,N,5.7,K,A*23
$GPGSA,A,2,03,06,07,09,16,22,26,,,,,,1.1,0.7,0.8*34
$GNGSA,A,2,03,06,07,09,16,22,26,,,,,,1.1,0.7,0.8*2A
$GNGSA,A,2,71,72,73,74,86,87,,,,,,,1.1,0.7,0.8*27
$BDGSA,A,2,,,,,,,,,,,,,1.1,0.7,0.8*2D
$GPRMC,211521.0,A,3437.818421,S,05822.364708,W,3.1,114.4,020517,5.5,W,A*19
$GLGSV,2,1,08,74,21,354,20,86,15,284,15,73,64,060,32,80,37,139,15*6C
$GLGSV,2,2,08,87,13,229,22,71,51,187,19,72,12,229,19,70,42,102,*68
$GPGSV,3,1,12,01,10,004,13,02,03,215,11,03,55,064,38,07,41,330,39*7B
$GPGSV,3,2,12,22,26,053,37,23,60,154,24,26,14,122,17,51,,,38*45
$GPGSV,3,3,12,06,34,244,,09,53,236,,16,22,094,,30,05,324,*78
$BDGSV,1,1,02,211,01,312,,214,49,217,*67
$GPGGA,211522.0,3437.819148,S,05822.363400,W,1,08,0.7,3.0,M,22.0,M,,*59
$GPVTG,112.1,T,117.6,M,2.9,N,5.4,K,A*2B
$GPGSA,A,2,03,06,07,09,16,22,23,26,,,,,1.0,0.7,0.7*3B
$GNGSA,A,2,03,06,07,09,16,22,23,26,,,,,1.0,0.7,0.7*25
$GNGSA,A,2,71,72,73,74,86,87,,,,,,,1.0,0.7,0.7*29
$BDGSA,A,2,,,,,,,,,,,,,1.0,0.7,0.7*23
$GPRMC,211522.0,A,3437.819148,S,05822.363400,W,2.9,112.1,020517,5.5,W,A*17
$GLGSV,2,1,08,74,21,354,19,86,15,284,15,73,64,060,33,80,37,139,15*67
$GLGSV,2,2,08,87,13,229,24,71,51,187,23,72,12,229,20,70,42,102,*6D
$GPGSV,3,1,12,01,10,004,13,02,03,215,11,03,55,064,39,07,41,330,40*74
$GPGSV,3,2,12,22,26,053,37,26,14,122,17,51,,,38,06,34,244,*47
$GPGSV,3,3,12,09,53,236,,16,22,094,,23,60,154,,30,05,324,*7C
$BDGSV,1,1,02,211,01,312,,214,49,217,*67
$GPGGA,211523.0,3437.819129,S,05822.363032,W,1,07,0.7,3.4,M,22.0,M,,*51
$GPVTG,112.1,T,117.6,M,0.0,N,0.0,K,A*21
$GPGSA,A,2,03,06,07,16,22,23,26,,,,,,1.1,0.7,0.8*3C
$GNGSA,A,2,03,06,07,16,22,23,26,,,,,,1.1,0.7,0.8*22
$GNGSA,A,2,71,72,73,74,86,87,,,,,,,1.1,0.7,0.8*27
$BDGSA,A,2,,,,,,,,,,,,,1.1,0.7,0.8*2D
$GPRMC,211523.0,A,3437.819129,S,05822.363032,W,0.0,112.1,020517,5.5,W,A*1F
$GLGSV,2,1,08,74,21,354,22,86,14,284,15,73,64,060,30,80,36,139,12*6B
$GLGSV,2,2,08,87,13,229,22,71,51,187,19,72,12,229,18,70,42,101,*6A
$GPGSV,3,1,12,01,09,004,13,02,03,215,11,03,55,064,36,06,34,244,24*70
$GPGSV,3,2,12,07,42,330,38,09,53,234,21,22,25,053,34,26,14,123,17*79
$GPGSV,3,3,12,51,,,38,16,22,094,,23,59,154,,30,05,324,*41
$BDGSV,1,1,02,211,01,312,,214,49,217,*67
$GPGGA,211524.0,3437.819204,S,05822.362941,W,1,07,0.8,3.3,M,22.0,M,,*5E
$GPVTG,112.1,T,117.6,M,0.0,N,0.0,K,A*21
$GPGSA,A,2,03,06,07,09,22,23,26,,,,,,1.1,0.8,0.8*3D
$GNGSA,A,2,03,06,07,09,22,23,26,,,,,,1.1,0.8,0.8*23
$GNGSA,A,2,71,72,73,74,87,,,,,,,,1.1,0.8,0.8*26
$BDGSA,A,2,,,,,,,,,,,,,1.1,0.8,0.8*22
$GPRMC,211524.0,A,3437.819204,S,05822.362941,W,0.0,112.1,020517,5.5,W,A*18
$GLGSV,2,1,08,74,21,354,27,70,42,101,20,86,14,284,15,73,64,060,33*6B
$GLGSV,2,2,08,80,36,139,18,87,13,229,24,71,51,187,22,72,12,229,20*61
$GPGSV,3,1,12,01,09,004,15,02,03,215,11,03,55,064,35,06,34,244,23*72
$GPGSV,3,2,12,07,42,330,36,09,53,234,22,22,25,053,32,23,59,154,23*79
$GPGSV,3,3,12,26,14,123,20,51,,,38,16,22,094,,30,05,324,*4F
$BDGSV,1,1,02,211,01,312,,214,49,217,*67
$GPGGA,211525.0,3437.819397,S,05822.362704,W,1,07,0.8,3.4,M,22.0,M,,*5C
$GPVTG,112.1,T,117.6,M,0.0,N,0.0,K,A*21
$GPGSA,A,2,03,06,07,09,22,23,26,,,,,,1.1,0.8,0.8*3D
$GNGSA,A,2,03,06,07,09,22,23,26,,,,,,1.1,0.8,0.8*23
$GNGSA,A,2,70,71,72,73,74,87,,,,,,,1.1,0.8,0.8*21
$BDGSA,A,2,,,,,,,,,,,,,1.1,0.8,0.8*22
$GPRMC,211525.0,A,3437.819397,S,05822.362704,W,0.0,112.1,020517,5.5,W,A*1D
$GLGSV,2,1,08,74,21,354,25,70,42,101,20,86,14,284,18,73,64,060,32*65
$GLGSV,2,2,08,80,36,139,17,87,13,229,20,71,51,187,21,72,12,229,17*6D
$GPGSV,3,1,12,01,09,004,18,02,03,215,11,03,55,064,34,07,42,330,40*79
$GPGSV,3,2,12,09,53,234,24,22,25,053,32,23,59,154,25,26,14,123,25*7B
$GPGSV,3,3,12,51,,,38,06,34,244,,16,22,094,,30,05,324,*4F
$BDGSV,1,1,02,211,01,312,,214,49,217,*67
$GPGGA,211526.0,3437.819217,S,05822.362457,W,1,07,0.8,3.4,M,22.0,M,,*53
$GPVTG,112.1,T,117.6,M,0.0,N,0.0,K,A*21
$GPGSA,A,2,03,06,07,09,22,23,26,,,,,,1.1,0.8,0.8*3D
$GNGSA,A,2,03,06,07,09,22,23,26,,,,,,1.1,0.8,0.8*23
$GNGSA,A,2,70,71,72,73,74,87,,,,,,,1.1,0.8,0.8*21
$BDGSA,A,2,,,,,,,,,,,,,1.1,0.8,0.8*22
$GPRMC,211526.0,A,3437.819217,S,05822.362457,W,0.0,112.1,020517,5.5,W,A*12
$GLGSV,2,1,08,74,21,354,26,70,42,101,19,86,14,284,17,73,64,060,31*60
$GLGSV,2,2,08,80,36,139,17,87,13,229,20,71,51,187,19,72,12,229,17*66
$GPGSV,3,1,12,01,09,004,18,02,03,215,11,03,55,064,35,07,42,330,41*79
$GPGSV,3,2,12,22,25,053,36,26,14,123,22,51,,,38,06,34,244,*42
$GPGSV,3,3,12,09,53,234,,16,22,094,,23,59,154,,30,05,324,*74
$BDGSV,1,1,02,211,01,312,,214,49,217,*67
$GPGGA,211527.0,3437.819378,S,05822.362375,W,1,07,0.8,3.7,M,22.0,M,,*5E
$GPVTG,112.1,T,117.6,M,0.0,N,0.0,K,A*21
$GPGSA,A,2,03,06,07,09,22,23,26,,,,,,1.1,0.8,0.8*3D
$GNGSA,A,2,03,06,07,09,22,23,26,,,,,,1.1,0.8,0.8*23
$GNGSA,A,2,70,71,73,74,87,,,,,,,,1.1,0.8,0.8*24
$BDGSA,A,2,,,,,,,,,,,,,1.1,0.8,0.8*22
$GPRMC,211527.0,A,3437.819378,S,05822.362375,W,0.0,112.1,020517,5.5,W,A*1C
$GLGSV,2,1,08,74,21,354,30,70,42,101,18,86,14,284,17,73,64,060,27*61
$GLGSV,2,2,08,80,36,139,17,87,13,229,14,71,51,187,20,72,12,229,17*6B
$GPGSV,3,1,12,01,09,004,18,02,03,215,11,03,55,064,27,07,42,330,40*7B
$GPGSV,3,2,12,22,25,053,37,23,59,154,23,26,14,123,18,51,,,38*45
$GPGSV,3,3,12,06,34,244,,09,53,234,,16,22,094,,30,05,324,*7A
$BDGSV,1,1,02,211,01,312,,214,49,217,*67
$GPGGA,211528.0,3437.819927,S,05822.360180,W,1,07,0.8,3.2,M,22.0,M,,*5E
$GPVTG,133.9,T,139.4,M,3.5,N,6.4,K,A*20
$GPGSA,A,2,03,06,07,09,22,23,26,,,,,,1.1,0.8,0.8*3D
$GNGSA,A,2,03,06,07,09,22,23,26,,,,,,1.1,0.8,0.8*23
$GNGSA,A,2,70,71,73,74,87,,,,,,,,1.1,0.8,0.8*24
$BDGSA,A,2,,,,,,,,,,,,,1.1,0.8,0.8*22
$GPRMC,211528.0,A,3437.819927,S,05822.360180,W,3.5,133.9,020517,5.5,W,A*14
$GLGSV,2,1,08,74,21,354,25,70,42,101,18,86,14,284,17,73,64,060,22*60
$GLGSV,2,2,08,80,36,139,17,87,13,229,21,71,51,187,20,72,12,229,15*6F
$GPGSV,3,1,12,01,09,004,18,03,55,064,29,07,42,330,39,09,53,234,22*76
$GPGSV,3,2,12,22,25,053,33,23,59,154,22,26,14,123,18,51,,,38*40
$GPGSV,3,3,12,02,03,215,,06,34,244,,16,22,094,,30,05,324,*77
$BDGSV,1,1,02,211,01,312,,214,49,217,*67
$GPGGA,211529.0,3437.820398,S,05822.357902,W,1,07,0.8,2.9,M,22.0,M,,*57
$GPVTG,124.0,T,129.5,M,3.9,N,7.2,K,A*24
$GPGSA,A,2,03,06,07,09,22,23,26,,,,,,1.1,0.8,0.8*3D
$GNGSA,A,2,03,06,07,09,22,23,26,,,,,,1.1,0.8,0.8*23
$GNGSA,A,2,70,71,73,74,87,,,,,,,,1.1,0.8,0.8*24
$BDGSA,A,2,,,,,,,,,,,,,1.1,0.8,0.8*22
$GPRMC,211529.0,A,3437.820398,S,05822.357902,W,3.9,124.0,020517,5.5,W,A*14
$GLGSV,2,1,08,74,21,354,25,70,42,101,18,86,14,284,17,73,64,060,25*67
$GLGSV,2,2,08,80,36,139,17,87,13,229,21,71,51,187,21,72,12,229,15*6E
$GPGSV,3,1,12,01,09,004,18,03,55,064,27,07,42,330,37,09,53,234,22*76
$GPGSV,3,2,12,22,25,053,37,23,59,154,26,26,14,123,24,51,,,38*4F
$GPGSV,3,3,12,02,03,215,,06,34,244,,16,22,094,,30,05,324,*77
$BDGSV,1,1,02,211,01,312,,214,49,217,*67
$GPGGA,211530.0,3437.826270,S,05822.358290,W,1,07,0.8,0.4,M,22.0,M,,*5E
$GPVTG,153.4,T,158.9,M,5.3,N,9.8,K,A*22
$GPGSA,A,2,03,06,07,09,22,23,26,,,,,,1.1,0.8,0.8*3D
$GNGSA,A,2,03,06,07,09,22,23,26,,,,,,1.1,0.8,0.8*23
$GNGSA,A,2,70,71,73,74,87,,,,,,,,1.1,0.8,0.8*24
$BDGSA,A,2,,,,,,,,,,,,,1.1,0.8,0.8*22
$GPRMC,211530.0,A,3437.826270,S,05822.358290,W,5.3,153.4,020517,5.5,W,A*1A
$GLGSV,2,1,08,74,21,354,27,70,42,101,18,86,14,284,17,73,64,060,23*63
$GLGSV,2,2,08,80,36,139,17,87,13,229,18,71,51,187,21,72,12,229,17*66
$GPGSV,3,1,12,01,09,004,16,03,55,064,28,07,42,330,34,09,53,234,22*74
$GPGSV,3,2,12,22,25,053,35,23,59,154,25,26,14,123,25,51,,,38*4F
$GPGSV,3,3,12,02,03,215,,06,34,244,,16,22,094,,30,05,324,*77
$BDGSV,1,1,02,211,01,312,,214,49,217,*67
$GPGGA,211531.0,3437.825584,S,05822.356983,W,1,06,0.9,0.3,M,22.0,M,,*50
$GPVTG,147.9,T,153.3,M,4.3,N,7.9,K,A*25
$GPGSA,A,2,03,07,09,22,23,26,,,,,,,1.2,0.9,0.8*39
$GNGSA,A,2,03,07,09,22,23,26,,,,,,,1.2,0.9,0.8*27
$GNGSA,A,2,71,73,74,87,,,,,,,,,1.2,0.9,0.8*21
$BDGSA,A,2,,,,,,,,,,,,,1.2,0.9,0.8*20
$GPRMC,211531.0,A,3437.825584,S,05822.356983,W,4.3,147.9,020517,5.5,W,A*1A
$GLGSV,2,1,08,74,21,354,20,70,42,101,18,86,14,284,12,73,65,061,23*61
$GLGSV,2,2,08,80,36,139,17,87,13,229,18,71,51,187,20,72,12,229,17*67
$GPGSV,3,1,12,01,09,004,16,03,55,064,31,07,42,330,32,09,53,234,21*79
$GPGSV,3,2,12,22,25,053,29,23,59,154,24,26,14,123,25,51,,,38*43
$GPGSV,3,3,12,02,03,215,,06,34,244,,16,22,094,,30,05,324,*77
$BDGSV,1,1,02,211,01,312,,214,49,217,*67
$GPGGA,211532.0,3437.826338,S,05822.355880,W,1,06,0.8,-0.0,M,22.0,M,,*7F
$GPVTG,163.5,T,169.0,M,2.7,N,5.0,K,A*2C
$GPGSA,A,2,03,07,09,22,23,26,,,,,,,1.1,0.8,0.8*3B
$GNGSA,A,2,03,07,09,22,23,26,,,,,,,1.1,0.8,0.8*25
$GNGSA,A,2,71,73,74,86,87,,,,,,,,1.1,0.8,0.8*2D
$BDGSA,A,2,,,,,,,,,,,,,1.1,0.8,0.8*22
$GPRMC,211532.0,A,3437.826338,S,05822.355880,W,2.7,163.5,020517,5.5,W,A*12
$GLGSV,2,1,08,74,21,354,22,70,42,101,18,86,14,284,12,73,65,061,28*68
$GLGSV,2,2,08,80,36,139,17,87,13,229,18,71,51,187,23,72,12,229,17*64
$GPGSV,3,1,12,01,09,004,18,03,55,064,29,06,34,244,22,07,42,330,25*72
$GPGSV,3,2,12,09,53,234,22,22,25,053,34,23,59,154,25,26,14,123,20*7E
$GPGSV,3,3,12,51,,,38,02,03,215,,16,22,094,,30,05,324,*4B
$BDGSV,1,1,02,211,01,312,,214,49,217,*67
$GPGGA,211533.0,3437.826597,S,05822.355333,W,1,08,0.7,-1.5,M,22.0,M,,*7B
$GPVTG,109.9,T,115.4,M,2.2,N,4.0,K,A*27
$GPGSA,A,2,01,03,06,07,09,22,23,26,,,,,1.1,0.7,0.7*3C
$GNGSA,A,2,01,03,06,07,09,22,23,26,,,,,1.1,0.7,0.7*22
$GNGSA,A,2,71,73,74,86,87,,,,,,,,1.1,0.7,0.7*2D
$BDGSA,A,2,,,,,,,,,,,,,1.1,0.7,0.7*22
$GPRMC,211533.0,A,3437.826597,S,05822.355333,W,2.2,109.9,020517,5.5,W,A*16
$GLGSV,2,1,08,74,21,354,19,70,42,101,18,86,14,284,12,73,65,061,26*6E
$GLGSV,2,2,08,80,36,139,17,87,13,229,15,71,51,187,22,72,12,229,17*68
$GPGSV,3,1,12,01,09,004,21,03,55,064,26,06,34,244,22,07,42,330,27*75
$GPGSV,3,2,12,09,53,234,25,22,25,053,28,23,59,154,22,26,14,123,22*71
$GPGSV,3,3,12,51,,,38,02,03,215,,16,22,094,,30,05,324,*4B
$BDGSV,1,1,02,211,01,312,,214,49,217,*67
$GPGGA,211534.0,3437.827637,S,05822.353294,W,1,08,0.7,-1.7,M,22.0,M,,*7C
$GPVTG,116.6,T,122.1,M,3.2,N,5.9,K,A*2E
$GPGSA,A,2,01,03,06,07,09,22,23,26,,,,,1.1,0.7,0.7*3C
$GNGSA,A,2,01,03,06,07,09,22,23,26,,,,,1.1,0.7,0.7*22
$GNGSA,A,2,71,73,74,86,87,,,,,,,,1.1,0.7,0.7*2D
$BDGSA,A,2,,,,,,,,,,,,,1.1,0.7,0.7*22
$GPRMC,211534.0,A,3437.827637,S,05822.353294,W,3.2,116.6,020517,5.5,W,A*13
$GLGSV,2,1,08,74,21,354,24,70,42,101,18,86,14,284,16,73,65,061,26*64
$GLGSV,2,2,08,80,36,139,17,87,13,229,15,71,51,187,24,72,12,229,17*6E
$GPGSV,3,1,12,01,09,004,22,03,55,064,30,06,34,244,22,07,42,330,30*77
$GPGSV,3,2,12,09,53,234,22,22,25,053,35,23,59,154,24,26,14,123,29*77
$GPGSV,3,3,12,51,,,38,02,03,215,,16,22,094,,30,05,324,*4B
$BDGSV,1,1,02,211,01,312,,214,49,217,*67
$GPGGA,211535.0,3437.828700,S,05822.351391,W,1,08,0.7,-2.0,M,22.0,M,,*75
$GPVTG,119.0,T,124.5,M,3.1,N,5.7,K,A*28
$GPGSA,A,2,01,03,06,07,09,22,23,26,,,,,1.1,0.7,0.7*3C
$GNGSA,A,2,01,03,06,07,09,22,23,26,,,,,1.1,0.7,0.7*22
$GNGSA,A,2,71,73,74,86,87,,,,,,,,1.1,0.7,0.7*2D
$BDGSA,A,2,,,,,,,,,,,,,1.1,0.7,0.7*22
$GPRMC,211535.0,A,3437.828700,S,05822.351391,W,3.1,119.0,020517,5.5,W,A*14
$GLGSV,2,1,08,74,21,354,26,70,42,101,18,86,14,284,16,73,65,061,23*63
$GLGSV,2,2,08,80,36,139,17,87,13,229,16,71,51,187,23,72,12,229,12*6F
$GPGSV,3,1,12,01,09,004,20,03,55,064,29,06,34,244,19,07,42,330,30*75
$GPGSV,3,2,12,09,53,234,22,22,25,053,36,23,59,154,22,26,14,123,27*7C
$GPGSV,3,3,12,51,,,38,02,03,215,,16,22,094,,30,05,324,*4B
$BDGSV,1,1,02,211,01,312,,214,49,217,*67
$GPGGA,211536.0,3437.828863,S,05822.349736,W,1,08,0.7,-1.2,M,22.0,M,,*7D
$GPVTG,122.0,T,127.5,M,4.2,N,7.7,K,A*25
$GPGSA,A,2,01,03,06,07,09,22,23,26,,,,,1.1,0.7,0.7*3C
$GNGSA,A,2,01,03,06,07,09,22,23,26,,,,,1.1,0.7,0.7*22
$GNGSA,A,2,71,73,74,86,87,,,,,,,,1.1,0.7,0.7*2D
$BDGSA,A,2,,,,,,,,,,,,,1.1,0.7,0.7*22
$GPRMC,211536.0,A,3437.828863,S,05822.349736,W,4.2,122.0,020517,5.5,W,A*11
$GLGSV,2,1,08,74,21,354,30,70,42,101,17,86,14,284,15,73,65,061,23*68
$GLGSV,2,2,08,80,36,139,17,87,13,229,17,71,51,187,22,72,12,229,12*6F
$GPGSV,3,1,12,01,09,004,20,03,55,064,28,06,34,244,21,07,42,330,30*7F
$GPGSV,3,2,12,09,53,234,25,22,25,053,34,23,59,154,26,26,14,123,26*7C
$GPGSV,3,3,12,51,,,38,02,03,215,,16,22,094,,30,05,324,*4B
$BDGSV,1,1,02,211,01,312,,214,49,217,*67
$GPGGA,211537.0,3437.828468,S,05822.348193,W,1,08,0.7,-2.5,M,22.0,M,,*77
$GPVTG,129.1,T,134.5,M,2.7,N,5.0,K,A*2B
$GPGSA,A,2,01,03,06,07,09,22,23,26,,,,,1.0,0.7,0.7*3D
$GNGSA,A,2,01,03,06,07,09,22,23,26,,,,,1.0,0.7,0.7*23
$GNGSA,A,2,70,71,73,74,86,87,,,,,,,1.0,0.7,0.7*2B
$BDGSA,A,2,,,,,,,,,,,,,1.0,0.7,0.7*23
$GPRMC,211537.0,A,3437.828468,S,05822.348193,W,2.7,129.1,020517,5.5,W,A*16
$GLGSV,2,1,08,74,21,354,24,70,42,101,17,86,14,284,17,73,65,061,24*68
$GLGSV,2,2,08,80,36,139,11,87,13,229,17,71,51,187,25,72,12,229,16*6A
$GPGSV,3,1,12,01,09,004,18,03,55,064,32,06,34,244,22,07,42,330,33*7F
$GPGSV,3,2,12,09,53,234,23,22,25,053,37,23,59,154,26,26,14,123,21*7E
$GPGSV,3,3,12,51,,,38,02,03,215,,16,22,094,,30,05,324,*4B
$BDGSV,1,1,02,211,01,312,,214,49,217,*67
$GPGGA,211538.0,3437.829283,S,05822.347571,W,1,08,0.7,-3.2,M,22.0,M,,*7B
$GPVTG,131.2,T,136.7,M,2.9,N,5.4,K,A*2B
$GPGSA,A,2,01,03,06,07,09,22,23,26,,,,,1.0,0.7,0.7*3D
$GNGSA,A,2,01,03,06,07,09,22,23,26,,,,,1.0,0.7,0.7*23
$GNGSA,A,2,70,71,73,74,86,87,,,,,,,1.0,0.7,0.7*2B
$BDGSA,A,2,,,,,,,,,,,,,1.0,0.7,0.7*23
$GPRMC,211538.0,A,3437.829283,S,05822.347571,W,2.9,131.2,020517,5.5,W,A*18
$GLGSV,2,1,08,74,21,354,29,70,42,101,17,86,14,284,19,73,65,061,27*68
$GLGSV,2,2,08,80,36,139,11,87,13,229,17,71,51,187,23,72,12,229,16*6C
$GPGSV,3,1,12,01,09,004,20,03,55,064,30,06,34,244,23,07,42,330,31*75
$GPGSV,3,2,12,09,53,234,24,22,25,053,37,23,59,154,24,26,14,123,22*78
$GPGSV,3,3,12,51,,,38,02,03,215,,16,22,094,,30,05,324,*4B
$BDGSV,1,1,02,211,01,312,,214,49,217,*67
$GPGGA,211539.0,3437.829664,S,05822.346320,W,1,08,0.7,-3.3,M,22.0,M,,*75
$GPVTG,113.8,T,119.3,M,2.6,N,4.8,K,A*2A
$GPGSA,A,2,01,03,06,07,09,22,23,26,,,,,1.0,0.7,0.7*3D
$GNGSA,A,2,01,03,06,07,09,22,23,26,,,,,1.0,0.7,0.7*23
$GNGSA,A,2,70,71,73,74,86,87,,,,,,,1.0,0.7,0.7*2B
$BDGSA,A,2,,,,,,,,,,,,,1.0,0.7,0.7*23
$GPRMC,211539.0,A,3437.829664,S,05822.346320,W,2.6,113.8,020517,5.5,W,A*12
$GLGSV,2,1,08,74,21,354,30,70,42,101,17,86,14,284,18,73,65,061,25*63
$GLGSV,2,2,08,80,36,139,11,87,13,229,17,71,51,187,19,72,12,229,17*64
$GPGSV,3,1,12,01,09,004,19,03,55,064,27,06,34,244,20,07,42,330,27*7D
$GPGSV,3,2,12,09,53,234,22,22,25,053,31,23,59,154,26,26,14,123,26*7E
$GPGSV,3,3,12,51,,,38,02,03,215,,16,22,094,,30,05,324,*4B
$BDGSV,1,1,02,211,01,312,,214,49,217,*67
$GPGGA,211540.0,3437.830153,S,05822.345877,W,1,08,0.7,-3.5,M,22.0,M,,*7C
$GPVTG,136.6,T,142.1,M,2.5,N,4.6,K,A*22
$GPGSA,A,2,01,03,06,07,09,22,23,26,,,,,1.0,0.7,0.7*3D
$GNGSA,A,2,01,03,06,07,09,22,23,26,,,,,1.0,0.7,0.7*23
$GNGSA,A,2,70,71,72,73,74,86,87,,,,,,1.0,0.7,0.7*2E
$BDGSA,A,2,,,,,,,,,,,,,1.0,0.7,0.7*23
$GPRMC,211540.0,A,3437.830153,S,05822.345877,W,2.5,136.6,020517,5.5,W,A*17
$GLGSV,2,1,08,74,21,354,29,70,42,101,17,86,14,284,17,73,65,061,25*64
$GLGSV,2,2,08,80,36,139,11,87,13,229,16,71,51,187,20,72,12,229,17*6F
$GPGSV,3,1,12,01,09,004,19,03,55,064,24,06,34,244,22,07,42,330,31*7B
$GPGSV,3,2,12,09,53,234,23,22,25,053,27,23,59,154,24,26,14,123,25*79
$GPGSV,3,3,12,51,,,38,02,03,215,,16,22,094,,30,05,324,*4B
$BDGSV,1,1,02,211,01,312,,214,49,217,*67
$GPGGA,211541.0,3437.830678,S,05822.345003,W,1,08,0.7,-4.2,M,22.0,M,,*78
$GPVTG,139.3,T,144.8,M,2.4,N,4.4,K,A*24
$GPGSA,A,2,01,03,06,07,09,22,23,26,,,,,1.0,0.7,0.7*3D
$GNGSA,A,2,01,03,06,07,09,22,23,26,,,,,1.0,0.7,0.7*23
$GNGSA,A,2,70,71,72,73,74,86,87,,,,,,1.0,0.7,0.7*2E
$BDGSA,A,2,,,,,,,,,,,,,1.0,0.7,0.7*23
$GPRMC,211541.0,A,3437.830678,S,05822.345003,W,2.4,139.3,020517,5.5,W,A*18
$GLGSV,2,1,08,74,21,354,25,70,42,101,15,86,14,284,17,73,65,061,27*68
$GLGSV,2,2,08,80,36,139,11,87,13,229,17,71,51,187,17,72,12,229,17*6A
$GPGSV,3,1,12,01,09,004,19,03,55,064,21,06,34,244,20,07,42,330,25*79
$GPGSV,3,2,12,23,59,154,21,26,14,123,22,51,,,38,02,03,215,*4C
$GPGSV,3,3,12,09,53,234,,16,22,094,,22,25,053,,30,05,324,*78
$BDGSV,1,1,02,211,01,312,,214,49,217,*67
$GPGGA,211542.0,3437.831027,S,05822.344246,W,1,08,0.7,-3.1,M,22.0,M,,*70
$GPVTG,137.2,T,142.7,M,2.1,N,3.9,K,A*2D
$GPGSA,A,2,01,03,06,07,09,22,23,26,,,,,1.0,0.7,0.7*3D
$GNGSA,A,2,01,03,06,07,09,22,23,26,,,,,1.0,0.7,0.7*23
$GNGSA,A,2,70,71,72,73,74,86,87,,,,,,1.0,0.7,0.7*2E
$BDGSA,A,2,,,,,,,,,,,,,1.0,0.7,0.7*23
$GPRMC,211542.0,A,3437.831027,S,05822.344246,W,2.1,137.2,020517,5.5,W,A*1E
$GLGSV,2,1,08,74,21,354,20,70,42,101,16,86,14,284,17,73,65,061,27*6E
$GLGSV,2,2,08,80,36,139,11,87,13,229,17,71,51,187,17,72,12,229,17*6A
$GPGSV,3,1,12,01,09,004,19,03,55,064,27,06,34,244,18,07,42,330,26*77
$GPGSV,3,2,12,26,14,123,21,51,,,38,02,03,215,,09,53,234,*4B
$GPGSV,3,3,12,16,22,094,,22,25,053,,23,59,154,,30,05,324,*7F
$BDGSV,1,1,02,211,01,312,,214,49,217,*67
$GPGGA,211543.0,3437.831295,S,05822.343426,W,1,08,0.7,-2.7,M,22.0,M,,*7A
$GPVTG,123.3,T,128.8,M,2.6,N,4.8,K,A*2B
$GPGSA,A,2,01,03,06,07,09,22,23,26,,,,,1.0,0.7,0.7*3D
$GNGSA,A,2,01,03,06,07,09,22,23,26,,,,,1.0,0.7,0.7*23
$GNGSA,A,2,70,71,72,73,74,86,87,,,,,,1.0,0.7,0.7*2E
$BDGSA,A,2,,,,,,,,,,,,,1.0,0.7,0.7*23
$GPRMC,211543.0,A,3437.831295,S,05822.343426,W,2.6,123.3,020517,5.5,W,A*10
$GLGSV,2,1,08,74,21,354,24,70,42,101,16,86,14,284,17,73,65,061,24*69
$GLGSV,2,2,08,80,36,139,11,87,13,229,17,71,51,187,18,72,12,229,13*61
$GPGSV,3,1,12,01,09,004,19,03,55,064,24,06,34,244,18,07,42,330,31*72
$GPGSV,3,2,12,26,14,123,19,51,,,38,02,03,215,,09,53,234,*40
$GPGSV,3,3,12,16,22,094,,22,25,053,,23,59,154,,30,05,324,*7F
$BDGSV,1,1,02,211,01,312,,214,49,217,*67
$GPGGA,211544.0,3437.831863,S,05822.342112,W,1,08,0.7,-3.2,M,22.0,M,,*79
$GPVTG,120.0,T,125.5,M,2.8,N,5.1,K,A*2D
$GPGSA,A,2,01,03,06,07,09,22,23,26,,,,,1.0,0.7,0.7*3D
$GNGSA,A,2,01,03,06,07,09,22,23,26,,,,,1.0,0.7,0.7*23
$GNGSA,A,2,70,71,72,73,74,86,87,,,,,,1.0,0.7,0.7*2E
$BDGSA,A,2,,,,,,,,,,,,,1.0,0.7,0.7*23
$GPRMC,211544.0,A,3437.831863,S,05822.342112,W,2.8,120.0,020517,5.5,W,A*19
$GLGSV,2,1,08,74,21,354,27,70,42,101,16,86,14,284,16,73,65,061,29*66
$GLGSV,2,2,08,80,36,139,11,87,13,229,17,71,51,187,21,72,12,229,13*6B
$GPGSV,3,1,12,01,09,004,19,03,55,064,26,06,34,244,19,07,42,330,31*71
$GPGSV,3,2,12,23,59,154,21,26,14,123,17,51,,,38,02,03,215,*4A
$GPGSV,3,3,12,09,53,234,,16,22,094,,22,25,053,,30,05,324,*78
$BDGSV,1,1,02,211,01,312,,214,49,217,*67
$GPGGA,211545.0,3437.831561,S,05822.341217,W,1,08,0.7,-3.6,M,22.0,M,,*76
$GPVTG,116.3,T,121.8,M,2.3,N,4.3,K,A*2A
$GPGSA,A,2,01,03,06,07,09,22,23,26,,,,,1.0,0.7,0.7*3D
$GNGSA,A,2,01,03,06,07,09,22,23,26,,,,,1.0,0.7,0.7*23
$GNGSA,A,2,70,71,72,73,74,86,87,,,,,,1.0,0.7,0.7*2E
$BDGSA,A,2,,,,,,,,,,,,,1.0,0.7,0.7*23
$GPRMC,211545.0,A,3437.831561,S,05822.341217,W,2.3,116.3,020517,5.5,W,A*1F
$GLGSV,2,1,08,74,21,354,28,70,42,101,17,86,14,284,18,73,65,061,34*6A
$GLGSV,2,2,08,80,36,139,11,87,13,229,16,71,51,187,25,72,12,229,15*68
$GPGSV,3,1,11,01,09,004,19,03,55,064,25,06,34,244,21,07,42,330,29*73
$GPGSV,3,2,11,09,53,234,24,23,59,154,21,26,14,123,22,02,03,215,*7C
$GPGSV,3,3,11,16,22,094,,22,25,053,,30,05,324,*41
$BDGSV,1,1,02,211,01,312,,214,49,217,*67
$GPGGA,211546.0,3437.832179,S,05822.340382,W,1,07,0.7,-4.8,M,22.0,M,,*71
$GPVTG,125.2,T,130.7,M,2.2,N,4.1,K,A*27
$GPGSA,A,2,03,06,07,09,22,23,26,,,,,,1.0,0.7,0.8*33
$GNGSA,A,2,03,06,07,09,22,23,26,,,,,,1.0,0.7,0.8*2D
$GNGSA,A,2,70,71,72,73,74,86,87,,,,,,1.0,0.7,0.8*21
$BDGSA,A,2,,,,,,,,,,,,,1.0,0.7,0.8*2C
$GPRMC,211546.0,A,3437.832179,S,05822.340382,W,2.2,125.2,020517,5.5,W,A*1E
$GLGSV,2,1,08,74,21,354,31,70,42,101,19,86,14,284,17,73,65,061,35*62
$GLGSV,2,2,08,87,13,229,18,71,51,187,25,72,12,229,16,80,36,139,*65
$GPGSV,3,1,11,01,09,004,19,03,55,064,23,06,34,244,23,07,42,330,37*78
$GPGSV,3,2,11,09,53,234,22,16,22,094,24,22,25,053,19,23,59,154,23*7B
$GPGSV,3,3,11,26,14,123,26,02,03,215,,30,05,324,*48
$BDGSV,1,1,02,211,01,312,,214,49,217,*67
$GPGGA,211547.0,3437.832796,S,05822.338597,W,1,07,0.7,-5.5,M,22.0,M,,*76
$GPVTG,122.3,T,127.8,M,3.1,N,5.7,K,A*2D
$GPGSA,A,2,03,06,07,09,16,23,26,,,,,,1.0,0.7,0.8*34
$GNGSA,A,2,03,06,07,09,16,23,26,,,,,,1.0,0.7,0.8*2A
$GNGSA,A,2,70,71,72,73,74,86,87,,,,,,1.0,0.7,0.8*21
$BDGSA,A,2,,,,,,,,,,,,,1.0,0.7,0.8*2C
$GPRMC,211547.0,A,3437.832796,S,05822.338597,W,3.1,122.3,020517,5.5,W,A*11
$GLGSV,2,1,08,74,21,354,30,70,42,101,21,86,14,284,18,73,65,061,36*64
$GLGSV,2,2,08,87,13,229,17,71,51,187,23,72,12,229,19,80,36,139,*63
$GPGSV,3,1,11,01,09,004,19,03,55,064,21,06,34,244,23,07,42,330,39*74
$GPGSV,3,2,11,09,53,234,25,16,22,094,21,22,25,053,18,23,59,154,25*7E
$GPGSV,3,3,11,26,14,123,22,02,03,215,,30,05,324,*4C
$BDGSV,1,1,02,211,01,312,,214,49,217,*67
$GPGGA,211548.0,3437.832507,S,05822.336929,W,1,07,0.7,-5.0,M,22.0,M,,*71
$GPVTG,116.3,T,121.8,M,3.2,N,5.9,K,A*21
$GPGSA,A,2,03,06,07,09,16,23,26,,,,,,1.0,0.7,0.8*34
$GNGSA,A,2,03,06,07,09,16,23,26,,,,,,1.0,0.7,0.8*2A
$GNGSA,A,2,70,71,72,73,74,86,87,,,,,,1.0,0.7,0.8*21
$BDGSA,A,2,,,,,,,,,,,,,1.0,0.7,0.8*2C
$GPRMC,211548.0,A,3437.832507,S,05822.336929,W,3.2,116.3,020517,5.5,W,A*17
$GLGSV,2,1,08,74,21,354,27,70,42,101,25,86,14,284,19,73,65,061,37*66
$GLGSV,2,2,08,87,13,229,21,71,51,187,22,72,12,229,19,80,36,139,*67
$GPGSV,3,1,11,01,09,004,19,03,55,064,24,06,34,244,25,07,42,330,39*77
$GPGSV,3,2,11,09,53,234,29,16,22,094,21,22,25,053,18,23,59,154,27*70
$GPGSV,3,3,11,26,14,123,18,02,03,215,,30,05,324,*45
$BDGSV,1,1,02,211,01,312,,214,49,217,*67
$GPGGA,211549.0,3437.832334,S,05822.335625,W,1,07,0.7,-4.8,M,22.0,M,,*7F
$GPVTG,134.7,T,140.2,M,2.7,N,5.0,K,A*25
$GPGSA,A,2,03,06,07,09,16,23,26,,,,,,1.0,0.7,0.8*34
$GNGSA,A,2,03,06,07,09,16,23,26,,,,,,1.0,0.7,0.8*2A
$GNGSA,A,2,70,71,72,73,74,86,87,,,,,,1.0,0.7,0.8*21
$BDGSA,A,2,,,,,,,,,,,,,1.0,0.7,0.8*2C
$GPRMC,211549.0,A,3437.832334,S,05822.335625,W,2.7,134.7,020517,5.5,W,A*10
$GLGSV,2,1,08,74,21,354,28,70,42,101,26,86,14,284,18,73,65,061,35*69
$GLGSV,2,2,08,87,13,229,21,71,51,187,22,72,12,229,20,80,36,139,*6D
$GPGSV,3,1,11,01,09,004,19,03,55,064,23,06,34,244,27,07,42,330,38*73
$GPGSV,3,2,11,09,53,234,28,16,22,094,25,22,25,053,17,23,59,154,23*7E
$GPGSV,3,3,11,26,14,123,18,30,05,324,14,02,03,215,*40
$BDGSV,1,1,02,211,01,312,,214,49,217,*67
$GPGGA,211550.0,3437.832401,S,05822.334442,W,1,07,0.7,-5.2,M,22.0,M,,*7F
$GPVTG,140.5,T,146.0,M,3.0,N,5.6,K,A*20
$GPGSA,A,2,03,06,07,09,16,23,26,,,,,,1.0,0.7,0.8*34
$GNGSA,A,2,03,06,07,09,16,23,26,,,,,,1.0,0.7,0.8*2A
$GNGSA,A,2,70,71,72,73,74,86,87,,,,,,1.0,0.7,0.8*21
$BDGSA,A,2,,,,,,,,,,,,,1.0,0.7,0.8*2C
$GPRMC,211550.0,A,3437.832401,S,05822.334442,W,3.0,140.5,020517,5.5,W,A*1C
$GLGSV,2,1,08,74,21,354,26,70,42,101,29,86,14,284,20,73,65,061,35*63
$GLGSV,2,2,08,87,13,229,20,71,51,187,23,72,12,229,20,80,36,139,*6D
$GPGSV,3,1,11,01,09,004,12,03,55,064,23,06,34,244,25,07,42,330,39*7B
$GPGSV,3,2,11,09,53,234,26,16,22,094,30,22,25,053,17,23,59,154,25*72
$GPGSV,3,3,11,26,14,123,16,30,05,324,14,02,03,215,*4E
$BDGSV,1,1,02,211,01,312,,214,49,217,*67
$GPGGA,211551.0,3437.833165,S,05822.333403,W,1,07,0.7,-4.6,M,22.0,M,,*7F
$GPVTG,133.8,T,139.3,M,3.5,N,6.4,K,A*26
$GPGSA,A,2,03,06,07,09,16,23,26,,,,,,1.0,0.7,0.8*34
$GNGSA,A,2,03,06,07,09,16,23,26,,,,,,1.0,0.7,0.8*2A
$GNGSA,A,2,70,71,72,73,74,86,87,,,,,,1.0,0.7,0.8*21
$BDGSA,A,2,,,,,,,,,,,,,1.0,0.7,0.8*2C
$GPRMC,211551.0,A,3437.833165,S,05822.333403,W,3.5,133.8,020517,5.5,W,A*15
$GLGSV,2,1,08,74,21,354,24,70,42,101,29,86,14,284,21,73,65,061,34*61
$GLGSV,2,2,08,87,13,229,23,71,51,187,26,72,12,229,22,80,36,139,*69
$GPGSV,3,1,11,01,09,004,12,03,55,064,28,06,34,244,25,07,42,330,38*71
$GPGSV,3,2,11,09,53,234,26,16,22,094,33,22,25,053,18,23,59,154,25*7E
$GPGSV,3,3,11,26,14,123,18,30,05,324,14,02,03,215,*40
$BDGSV,1,1,02,211,01,312,,214,49,217,*67
$GPGGA,211552.0,3437.834052,S,05822.332450,W,1,07,0.7,-4.8,M,22.0,M,,*77
$GPVTG,140.0,T,145.5,M,2.8,N,5.1,K,A*2D
$GPGSA,A,2,03,06,07,09,16,23,26,,,,,,1.0,0.7,0.8*34
$GNGSA,A,2,03,06,07,09,16,23,26,,,,,,1.0,0.7,0.8*2A
$GNGSA,A,2,70,71,72,73,74,86,87,,,,,,1.0,0.7,0.8*21
$BDGSA,A,2,,,,,,,,,,,,,1.0,0.7,0.8*2C
$GPRMC,211552.0,A,3437.834052,S,05822.332450,W,2.8,140.0,020517,5.5,W,A*13
$GLGSV,2,1,08,74,21,354,21,70,42,101,28,86,14,284,19,73,65,061,34*6E
$GLGSV,2,2,08,87,13,229,21,71,51,187,23,72,12,229,19,80,36,139,*66
$GPGSV,3,1,11,01,09,004,12,03,55,064,26,06,34,244,24,07,42,330,37*71
$GPGSV,3,2,11,09,53,234,26,16,22,094,34,22,25,053,18,23,59,154,25*79
$GPGSV,3,3,11,26,14,123,17,30,05,324,14,02,03,215,*4F
$BDGSV,1,1,02,211,01,312,,214,49,217,*67
$GPGGA,211553.0,3437.834425,S,05822.331592,W,1,07,0.7,-3.5,M,22.0,M,,*74
$GPVTG,132.5,T,138.0,M,3.1,N,5.7,K,A*2C
$GPGSA,A,2,03,06,07,09,16,23,26,,,,,,1.0,0.7,0.8*34
$GNGSA,A,2,03,06,07,09,16,23,26,,,,,,1.0,0.7,0.8*2A
$GNGSA,A,2,70,71,72,73,74,86,87,,,,,,1.0,0.7,0.8*21
$BDGSA,A,2,,,,,,,,,,,,,1.0,0.7,0.8*2C
$GPRMC,211553.0,A,3437.834425,S,05822.331592,W,3.1,132.5,020517,5.5,W,A*12
$GLGSV,2,1,08,74,21,354,21,70,42,101,27,86,14,284,19,73,65,061,35*60
$GLGSV,2,2,08,87,13,229,20,71,51,187,24,72,12,229,17,80,36,139,*6E
$GPGSV,3,1,11,01,09,004,12,03,55,064,24,06,34,244,26,07,42,330,39*7F
$GPGSV,3,2,11,09,53,234,27,16,22,094,37,22,25,053,18,23,59,154,24*7A
$GPGSV,3,3,11,26,14,123,18,30,05,324,15,02,03,215,*41
$BDGSV,1,1,02,211,01,312,,214,49,217,*67
$GPGGA,211554.0,3437.834779,S,05822.330262,W,1,06,0.8,-2.8,M,22.0,M,,*72
$GPVTG,132.3,T,137.8,M,3.2,N,5.9,K,A*20
$GPGSA,A,2,03,06,07,09,16,23,,,,,,,1.1,0.8,0.8*3E
$GNGSA,A,2,03,06,07,09,16,23,,,,,,,1.1,0.8,0.8*20
$GNGSA,A,2,70,71,72,73,74,86,87,,,,,,1.1,0.8,0.8*2F
$BDGSA,A,2,,,,,,,,,,,,,1.1,0.8,0.8*22
$GPRMC,211554.0,A,3437.834779,S,05822.330262,W,3.2,132.3,020517,5.5,W,A*13
$GLGSV,2,1,08,74,21,354,21,70,42,101,25,86,14,284,18,73,65,061,34*62
$GLGSV,2,2,08,87,13,229,18,71,51,187,28,72,12,229,18,80,36,139,*66
$GPGSV,3,1,11,01,09,004,12,03,55,064,21,06,34,244,27,07,42,330,41*74
$GPGSV,3,2,11,09,53,234,24,16,22,094,34,22,25,053,17,23,59,154,23*72
$GPGSV,3,3,11,26,14,123,20,30,05,324,15,02,03,215,*4A
$BDGSV,1,1,02,211,01,312,,214,49,217,*67
$GPGGA,211555.0,3437.835502,S,05822.329502,W,1,06,0.8,-2.0,M,22.0,M,,*7D
$GPVTG,137.1,T,142.6,M,3.1,N,5.7,K,A*26
$GPGSA,A,2,03,06,07,09,16,23,,,,,,,1.1,0.8,0.8*3E
$GNGSA,A,2,03,06,07,09,16,23,,,,,,,1.1,0.8,0.8*20
$GNGSA,A,2,70,71,72,73,74,86,87,,,,,,1.1,0.8,0.8*2F
$BDGSA,A,2,,,,,,,,,,,,,1.1,0.8,0.8*22
$GPRMC,211555.0,A,3437.835502,S,05822.329502,W,3.1,137.1,020517,5.5,W,A*10
$GLGSV,2,1,08,74,21,354,21,70,42,101,26,86,14,284,21,73,65,061,35*6A
$GLGSV,2,2,08,87,13,229,19,71,51,187,24,72,12,229,18,80,36,139,*6B
$GPGSV,3,1,11,01,09,004,12,03,55,064,23,06,34,244,26,07,42,330,40*76
$GPGSV,3,2,11,09,53,234,27,16,22,094,36,22,25,053,18,23,59,154,22*7D
$GPGSV,3,3,11,26,14,123,21,30,05,324,15,02,03,215,*4B
$BDGSV,1,1,02,211,01,312,,214,49,217,*67
$GPGGA,211556.0,3437.835801,S,05822.328375,W,1,07,0.7,-1.3,M,22.0,M,,*79
$GPVTG,136.6,T,142.1,M,3.1,N,5.7,K,A*27
$GPGSA,A,2,03,06,07,09,16,23,26,,,,,,1.0,0.7,0.8*34
$GNGSA,A,2,03,06,07,09,16,23,26,,,,,,1.0,0.7,0.8*2A
$GNGSA,A,2,70,71,72,73,74,86,87,,,,,,1.0,0.7,0.8*21
$BDGSA,A,2,,,,,,,,,,,,,1.0,0.7,0.8*2C
$GPRMC,211556.0,A,3437.835801,S,05822.328375,W,3.1,136.6,020517,5.5,W,A*1C
$GLGSV,2,1,08,74,21,354,21,70,42,101,26,86,14,284,20,73,65,061,36*68
$GLGSV,2,2,08,87,13,229,17,71,51,187,27,72,12,229,14,80,36,139,*6A
$GPGSV,3,1,11,01,09,004,12,03,55,064,22,06,34,244,27,07,42,330,40*76
$GPGSV,3,2,11,09,53,234,24,16,22,094,35,22,25,053,20,23,59,154,24*70
$GPGSV,3,3,11,26,14,123,18,30,05,324,17,02,03,215,*43
$BDGSV,1,1,02,211,01,312,,214,49,217,*67
$GPGGA,211557.0,3437.836421,S,05822.327586,W,1,08,0.7,-0.4,M,22.0,M,,*79
$GPVTG,137.5,T,143.0,M,3.1,N,5.7,K,A*25
$GPGSA,A,2,03,06,07,09,16,22,23,26,,,,,1.0,0.7,0.7*3B
$GNGSA,A,2,03,06,07,09,16,22,23,26,,,,,1.0,0.7,0.7*25
$GNGSA,A,2,70,71,72,73,74,86,87,,,,,,1.0,0.7,0.7*2E
$BDGSA,A,2,,,,,,,,,,,,,1.0,0.7,0.7*23
$GPRMC,211557.0,A,3437.836421,S,05822.327586,W,3.1,137.5,020517,5.5,W,A*17
$GLGSV,2,1,08,74,21,354,21,70,42,101,23,86,14,284,20,73,65,061,36*6D
$GLGSV,2,2,08,87,13,229,17,71,51,187,23,72,12,229,14,80,36,139,*6E
$GPGSV,3,1,11,01,09,004,12,03,55,064,24,06,34,244,23,07,42,330,37*74
$GPGSV,3,2,11,09,53,234,24,16,22,094,34,22,25,053,20,26,14,123,17*7D
$GPGSV,3,3,11,30,05,324,18,02,03,215,,23,59,154,*49
$BDGSV,1,1,02,211,01,312,,214,49,217,*67
$GPGGA,211558.0,3437.836666,S,05822.326879,W,1,08,0.7,0.1,M,22.0,M,,*53
$GPVTG,138.0,T,143.5,M,3.0,N,5.5,K,A*29
$GPGSA,A,2,03,06,07,09,16,22,23,26,,,,,1.0,0.7,0.8*34
$GNGSA,A,2,03,06,07,09,16,22,23,26,,,,,1.0,0.7,0.8*2A
$GNGSA,A,2,70,71,73,74,86,87,,,,,,,1.0,0.7,0.8*24
$BDGSA,A,2,,,,,,,,,,,,,1.0,0.7,0.8*2C
$GPRMC,211558.0,A,3437.836666,S,05822.326879,W,3.0,138.0,020517,5.5,W,A*1E
$GLGSV,2,1,08,74,21,354,21,70,42,101,26,86,14,284,18,73,65,061,36*63
$GLGSV,2,2,08,87,13,229,16,71,51,187,24,72,12,229,14,80,36,139,*68
$GPGSV,3,1,11,01,09,004,12,03,55,064,26,06,34,244,22,07,42,330,40*77
$GPGSV,3,2,11,09,53,234,24,16,22,094,29,22,25,053,20,26,14,123,17*71
$GPGSV,3,3,11,30,05,324,18,02,03,215,,23,59,154,*49
$BDGSV,1,1,02,211,01,312,,214,49,217,*67
$GPGGA,211559.0,3437.837319,S,05822.326159,W,1,08,0.8,1.3,M,22.0,M,,*59
$GPVTG,146.8,T,152.3,M,2.3,N,4.2,K,A*2A
$GPGSA,A,2,03,06,07,09,16,22,23,26,,,,,1.1,0.8,0.8*3A
$GNGSA,A,2,03,06,07,09,16,22,23,26,,,,,1.1,0.8,0.8*24
$GNGSA,A,2,70,71,73,86,87,,,,,,,,1.1,0.8,0.8*29
$BDGSA,A,2,,,,,,,,,,,,,1.1,0.8,0.8*22
$GPRMC,211559.0,A,3437.837319,S,05822.326159,W,2.3,146.8,020517,5.5,W,A*1B
$GLGSV,2,1,08,74,21,354,21,70,42,101,23,86,14,284,20,73,65,061,37*6C
$GLGSV,2,2,08,87,13,229,16,71,51,187,19,72,12,229,14,80,36,139,*66
$GPGSV,3,1,11,01,09,004,12,03,55,064,27,06,34,244,25,07,42,330,40*71
$GPGSV,3,2,11,09,53,234,24,16,22,094,27,22,25,053,20,26,14,123,17*7F
$GPGSV,3,3,11,30,05,324,17,02,03,215,,23,59,154,*46
$BDGSV,1,1,02,211,01,312,,214,49,217,*67
$GPGGA,211600.0,3437.837302,S,05822.324890,W,1,08,0.9,2.4,M,22.0,M,,*57
$GPVTG,127.2,T,132.7,M,2.9,N,5.3,K,A*2F
$GPGSA,A,2,03,06,07,09,16,22,23,26,,,,,1.2,0.9,0.8*38
$GNGSA,A,2,03,06,07,09,16,22,23,26,,,,,1.2,0.9,0.8*26
$GNGSA,A,2,70,71,73,86,,,,,,,,,1.2,0.9,0.8*24
$BDGSA,A,2,,,,,,,,,,,,,1.2,0.9,0.8*20
$GPRMC,211600.0,A,3437.837302,S,05822.324890,W,2.9,127.2,020517,5.5,W,A*17
$GLGSV,2,1,08,74,21,354,21,70,42,101,24,86,14,284,20,73,65,061,33*6F
$GLGSV,2,2,08,87,13,229,16,71,51,187,19,72,12,229,14,80,36,139,*66
$GPGSV,3,1,11,01,09,004,13,03,55,064,26,07,42,330,40,16,22,094,27*7A
$GPGSV,3,2,11,22,25,053,18,26,14,123,19,30,05,324,21,02,03,215,*7E
$GPGSV,3,3,11,06,34,244,,09,53,234,,23,59,154,*4D
$BDGSV,1,1,02,211,01,312,,214,49,217,*67
$GPGGA,211601.0,3437.837800,S,05822.324034,W,1,09,0.8,2.6,M,22.0,M,,*5B
$GPVTG,126.8,T,132.3,M,2.8,N,5.1,K,A*23
$GPGSA,A,2,03,06,07,09,16,22,23,26,30,,,,1.1,0.8,0.8*39
$GNGSA,A,2,03,06,07,09,16,22,23,26,30,,,,1.1,0.8,0.8*27
$GNGSA,A,2,70,71,73,86,,,,,,,,,1.1,0.8,0.8*26
$BDGSA,A,2,,,,,,,,,,,,,1.1,0.8,0.8*22
$GPRMC,211601.0,A,3437.837800,S,05822.324034,W,2.8,126.8,020517,5.5,W,A*13
$GLGSV,2,1,08,74,21,354,21,70,42,101,21,86,14,284,20,73,65,061,33*6A
$GLGSV,2,2,08,87,13,229,13,71,51,187,16,72,12,229,14,80,36,139,*6C
$GPGSV,3,1,11,01,09,004,13,03,55,064,32,07,42,330,34,16,22,094,29*72
$GPGSV,3,2,11,22,25,053,22,23,59,154,22,26,14,123,21,30,05,324,20*77
$GPGSV,3,3,11,02,03,215,,06,34,244,,09,53,234,*47
$BDGSV,1,1,02,211,01,312,,214,49,217,*67
$GPGGA,211602.0,3437.838086,S,05822.323228,W,1,09,0.7,5.5,M,22.0,M,,*52
$GPVTG,120.3,T,125.8,M,2.6,N,4.9,K,A*24
$GPGSA,A,2,03,06,07,09,16,22,23,26,30,,,,1.0,0.7,0.7*38
$GNGSA,A,2,03,06,07,09,16,22,23,26,30,,,,1.0,0.7,0.7*26
$GNGSA,A,2,70,71,73,86,87,,,,,,,,1.0,0.7,0.7*28
$BDGSA,A,2,,,,,,,,,,,,,1.0,0.7,0.7*23
$GPRMC,211602.0,A,3437.838086,S,05822.323228,W,2.6,120.3,020517,5.5,W,A*12
